{"type":"FeatureCollection","features":[{"type":"Feature","geometry":{"type":"Point","coordinates":[-1.2720185831873299,49.59929335711731]},"properties":{"name":"Saint-Vaast-la-Hougue","population":1729,"contributions":2,"per_cent":0.116,"insee":"50562"}},{"type":"Feature","geometry":{"type":"Point","coordinates":[6.201368173917152,45.95306936108332]},"properties":{"name":"Villaz","population":3387,"contributions":5,"per_cent":0.148,"insee":"74303"}},{"type":"Feature","geometry":{"type":"Point","coordinates":[5.104660099501778,47.2921370356089]},"properties":{"name":"Sennecey-l\u00e8s-Dijon","population":2003,"contributions":5,"per_cent":0.25,"insee":"21605"}},{"type":"Feature","geometry":{"type":"Point","coordinates":[-1.3636783309999243,43.81186932023279]},"properties":{"name":"Messanges","population":972,"contributions":4,"per_cent":0.412,"insee":"40181"}},{"type":"Feature","geometry":{"type":"Point","coordinates":[-3.2881970931368363,48.09262449269591]},"properties":{"name":"Plo\u00ebrdut","population":1213,"contributions":1,"per_cent":0.082,"insee":"56163"}},{"type":"Feature","geometry":{"type":"Point","coordinates":[4.710963179434238,46.01854915389821]},"properties":{"name":"Arnas","population":3847,"contributions":2,"per_cent":0.052,"insee":"69013"}},{"type":"Feature","geometry":{"type":"Point","coordinates":[0.23832495436983678,49.412777660902194]},"properties":{"name":"Honfleur","population":7138,"contributions":4,"per_cent":0.056,"insee":"14333"}},{"type":"Feature","geometry":{"type":"Point","coordinates":[-0.3983450871905853,49.25088360009663]},"properties":{"name":"Anisy","population":734,"contributions":2,"per_cent":0.272,"insee":"14015"}},{"type":"Feature","geometry":{"type":"Point","coordinates":[-0.3688509022193004,48.08902232748197]},"properties":{"name":"Sainte-Suzanne-et-Chammes","population":1282,"contributions":1,"per_cent":0.078,"insee":"53255"}},{"type":"Feature","geometry":{"type":"Point","coordinates":[7.639682226759151,48.963789841565195]},"properties":{"name":"Niederbronn-les-Bains","population":4393,"contributions":3,"per_cent":0.068,"insee":"67324"}},{"type":"Feature","geometry":{"type":"Point","coordinates":[4.929622573735432,49.69681890433342]},"properties":{"name":"Sedan","population":16193,"contributions":4,"per_cent":0.025,"insee":"08409"}},{"type":"Feature","geometry":{"type":"Point","coordinates":[4.44228403088382,46.64044769327734]},"properties":{"name":"Gourdon","population":895,"contributions":1,"per_cent":0.112,"insee":"71222"}},{"type":"Feature","geometry":{"type":"Point","coordinates":[4.309173718592588,48.9459668323892]},"properties":{"name":"Fagni\u00e8res","population":4838,"contributions":4,"per_cent":0.083,"insee":"51242"}},{"type":"Feature","geometry":{"type":"Point","coordinates":[1.3899803493227394,48.371109512631726]},"properties":{"name":"Meslay-le-Grenet","population":352,"contributions":1,"per_cent":0.284,"insee":"28245"}},{"type":"Feature","geometry":{"type":"Point","coordinates":[0.7760954891928704,47.352610980603636]},"properties":{"name":"Lar\u00e7ay","population":2486,"contributions":8,"per_cent":0.322,"insee":"37124"}},{"type":"Feature","geometry":{"type":"Point","coordinates":[4.840156546427496,46.30595537863475]},"properties":{"name":"Saint-Laurent-sur-Sa\u00f4ne","population":1689,"contributions":3,"per_cent":0.178,"insee":"01370"}},{"type":"Feature","geometry":{"type":"Point","coordinates":[-0.6002305383158819,44.88881012145231]},"properties":{"name":"Bruges","population":18316,"contributions":19,"per_cent":0.104,"insee":"33075"}},{"type":"Feature","geometry":{"type":"Point","coordinates":[5.111985218829016,45.09502282301822]},"properties":{"name":"Triors","population":585,"contributions":1,"per_cent":0.171,"insee":"26355"}},{"type":"Feature","geometry":{"type":"Point","coordinates":[4.420970154381061,45.66198316964431]},"properties":{"name":"Gr\u00e9zieu-le-March\u00e9","population":821,"contributions":1,"per_cent":0.122,"insee":"69095"}},{"type":"Feature","geometry":{"type":"Point","coordinates":[4.8812085572649035,45.70426261678241]},"properties":{"name":"V\u00e9nissieux","population":67129,"contributions":30,"per_cent":0.045,"insee":"69259"}},{"type":"Feature","geometry":{"type":"Point","coordinates":[2.1671486794553867,50.85621586467242]},"properties":{"name":"Ruminghem","population":1641,"contributions":1,"per_cent":0.061,"insee":"62730"}},{"type":"Feature","geometry":{"type":"Point","coordinates":[-0.28800270465271416,49.24401029253891]},"properties":{"name":"B\u00e9nouville","population":2046,"contributions":1,"per_cent":0.049,"insee":"14060"}},{"type":"Feature","geometry":{"type":"Point","coordinates":[2.819962850994922,43.921377616434725]},"properties":{"name":"Vabres-l'Abbaye","population":1204,"contributions":1,"per_cent":0.083,"insee":"12286"}},{"type":"Feature","geometry":{"type":"Point","coordinates":[-1.969131139990741,47.76443676476582]},"properties":{"name":"Saint-Just","population":1062,"contributions":2,"per_cent":0.188,"insee":"35285"}},{"type":"Feature","geometry":{"type":"Point","coordinates":[4.618364005801744,45.65711114377999]},"properties":{"name":"Rontalon","population":1153,"contributions":2,"per_cent":0.173,"insee":"69170"}},{"type":"Feature","geometry":{"type":"Point","coordinates":[-0.16030554823761728,47.67571879374395]},"properties":{"name":"Bazouges Cr\u00e9 sur Loir","population":2021,"contributions":1,"per_cent":0.049,"insee":"72025"}},{"type":"Feature","geometry":{"type":"Point","coordinates":[-4.031588842965409,48.6998675399381]},"properties":{"name":"Santec","population":2401,"contributions":2,"per_cent":0.083,"insee":"29273"}},{"type":"Feature","geometry":{"type":"Point","coordinates":[7.446847597907419,47.90980767844602]},"properties":{"name":"Hirtzfelden","population":1283,"contributions":1,"per_cent":0.078,"insee":"68140"}},{"type":"Feature","geometry":{"type":"Point","coordinates":[-1.0654348473760908,44.345109623313924]},"properties":{"name":"Parentis-en-Born","population":6466,"contributions":13,"per_cent":0.201,"insee":"40217"}},{"type":"Feature","geometry":{"type":"Point","coordinates":[1.5456654755503711,48.543441535665224]},"properties":{"name":"Chartainvilliers","population":719,"contributions":1,"per_cent":0.139,"insee":"28084"}},{"type":"Feature","geometry":{"type":"Point","coordinates":[4.832016965612382,45.28907414154981]},"properties":{"name":"Saint-Rambert-d'Albon","population":6641,"contributions":4,"per_cent":0.06,"insee":"26325"}},{"type":"Feature","geometry":{"type":"Point","coordinates":[2.82662559335497,50.512514990672685]},"properties":{"name":"Douvrin","population":5544,"contributions":2,"per_cent":0.036,"insee":"62276"}},{"type":"Feature","geometry":{"type":"Point","coordinates":[3.092433489040743,50.60484272328399]},"properties":{"name":"Ronchin","population":19477,"contributions":54,"per_cent":0.277,"insee":"59507"}},{"type":"Feature","geometry":{"type":"Point","coordinates":[6.25643401692092,46.917263644533]},"properties":{"name":"Chaffois","population":1027,"contributions":2,"per_cent":0.195,"insee":"25110"}},{"type":"Feature","geometry":{"type":"Point","coordinates":[2.2320573707588975,47.885167186244736]},"properties":{"name":"Ch\u00e2teauneuf-sur-Loire","population":8176,"contributions":5,"per_cent":0.061,"insee":"45082"}},{"type":"Feature","geometry":{"type":"Point","coordinates":[6.8490369685177495,47.595790710594954]},"properties":{"name":"Botans","population":237,"contributions":1,"per_cent":0.422,"insee":"90015"}},{"type":"Feature","geometry":{"type":"Point","coordinates":[3.020198745636961,43.16503376895376]},"properties":{"name":"Narbonne","population":55375,"contributions":240,"per_cent":0.433,"insee":"11262"}},{"type":"Feature","geometry":{"type":"Point","coordinates":[6.389068972635302,49.006889612766614]},"properties":{"name":"R\u00e9milly","population":2003,"contributions":7,"per_cent":0.349,"insee":"57572"}},{"type":"Feature","geometry":{"type":"Point","coordinates":[2.0231084114002145,47.90260416007636]},"properties":{"name":"Ch\u00e9cy","population":8636,"contributions":60,"per_cent":0.695,"insee":"45089"}},{"type":"Feature","geometry":{"type":"Point","coordinates":[3.052790328564231,45.961418907373066]},"properties":{"name":"Teilh\u00e8de","population":471,"contributions":1,"per_cent":0.212,"insee":"63427"}},{"type":"Feature","geometry":{"type":"Point","coordinates":[0.23351093840913273,44.82423395995843]},"properties":{"name":"Pineuilh","population":4432,"contributions":2,"per_cent":0.045,"insee":"33324"}},{"type":"Feature","geometry":{"type":"Point","coordinates":[3.9184860658592804,43.83030412350266]},"properties":{"name":"Sauteyrargues","population":408,"contributions":2,"per_cent":0.49,"insee":"34297"}},{"type":"Feature","geometry":{"type":"Point","coordinates":[7.459761871168186,49.04751873541186]},"properties":{"name":"Bitche","population":5025,"contributions":1,"per_cent":0.02,"insee":"57089"}},{"type":"Feature","geometry":{"type":"Point","coordinates":[3.0625146123646148,45.92073149951818]},"properties":{"name":"Ch\u00e2tel-Guyon","population":6195,"contributions":1,"per_cent":0.016,"insee":"63103"}},{"type":"Feature","geometry":{"type":"Point","coordinates":[5.4201468532519,47.10206317464044]},"properties":{"name":"Champvans","population":1428,"contributions":1,"per_cent":0.07,"insee":"39101"}},{"type":"Feature","geometry":{"type":"Point","coordinates":[5.613078268510996,46.154014932863184]},"properties":{"name":"Nantua","population":3410,"contributions":2,"per_cent":0.059,"insee":"01269"}},{"type":"Feature","geometry":{"type":"Point","coordinates":[1.5289148627287803,43.64227320409052]},"properties":{"name":"Montrab\u00e9","population":4089,"contributions":7,"per_cent":0.171,"insee":"31389"}},{"type":"Feature","geometry":{"type":"Point","coordinates":[1.0355373080761314,49.511077504836045]},"properties":{"name":"Le Houlme","population":4033,"contributions":2,"per_cent":0.05,"insee":"76366"}},{"type":"Feature","geometry":{"type":"Point","coordinates":[-1.3834115154426696,46.83288309881385]},"properties":{"name":"Saint-Denis-la-Chevasse","population":2349,"contributions":2,"per_cent":0.085,"insee":"85208"}},{"type":"Feature","geometry":{"type":"Point","coordinates":[8.015625310257102,48.91708965847959]},"properties":{"name":"Buhl","population":518,"contributions":1,"per_cent":0.193,"insee":"67069"}},{"type":"Feature","geometry":{"type":"Point","coordinates":[4.09092890441569,46.01742732856789]},"properties":{"name":"Le Coteau","population":6881,"contributions":1,"per_cent":0.015,"insee":"42071"}},{"type":"Feature","geometry":{"type":"Point","coordinates":[3.1934106528026445,45.718009570641655]},"properties":{"name":"Le Cendre","population":5489,"contributions":5,"per_cent":0.091,"insee":"63069"}},{"type":"Feature","geometry":{"type":"Point","coordinates":[1.4529289351681067,48.435136352816]},"properties":{"name":"Luc\u00e9","population":15435,"contributions":43,"per_cent":0.279,"insee":"28218"}},{"type":"Feature","geometry":{"type":"Point","coordinates":[7.604124912575204,48.60150828217213]},"properties":{"name":"Ittenheim","population":2112,"contributions":2,"per_cent":0.095,"insee":"67226"}},{"type":"Feature","geometry":{"type":"Point","coordinates":[-0.2497884628168002,43.09336192907866]},"properties":{"name":"Asson","population":2018,"contributions":2,"per_cent":0.099,"insee":"64068"}},{"type":"Feature","geometry":{"type":"Point","coordinates":[3.630372204769544,50.30996100027627]},"properties":{"name":"Jenlain","population":1141,"contributions":2,"per_cent":0.175,"insee":"59323"}},{"type":"Feature","geometry":{"type":"Point","coordinates":[2.357461913303338,49.87239437469993]},"properties":{"name":"Longueau","population":5693,"contributions":6,"per_cent":0.105,"insee":"80489"}},{"type":"Feature","geometry":{"type":"Point","coordinates":[1.6737671110414896,48.98432550896347]},"properties":{"name":"Buchelay","population":3111,"contributions":9,"per_cent":0.289,"insee":"78118"}},{"type":"Feature","geometry":{"type":"Point","coordinates":[4.842081438233565,45.1582729823988]},"properties":{"name":"Ponsas","population":531,"contributions":1,"per_cent":0.188,"insee":"26247"}},{"type":"Feature","geometry":{"type":"Point","coordinates":[4.821446732148774,46.41824255649643]},"properties":{"name":"Cless\u00e9","population":881,"contributions":1,"per_cent":0.114,"insee":"71135"}},{"type":"Feature","geometry":{"type":"Point","coordinates":[-3.4812112681866423,48.13184756976042]},"properties":{"name":"Langonnet","population":1739,"contributions":4,"per_cent":0.23,"insee":"56100"}},{"type":"Feature","geometry":{"type":"Point","coordinates":[4.897577809932494,44.720961560823916]},"properties":{"name":"Grane","population":1943,"contributions":9,"per_cent":0.463,"insee":"26144"}},{"type":"Feature","geometry":{"type":"Point","coordinates":[5.687553899357905,46.572003382798236]},"properties":{"name":"Pont-de-Poitte","population":638,"contributions":4,"per_cent":0.627,"insee":"39435"}},{"type":"Feature","geometry":{"type":"Point","coordinates":[5.537547566679185,46.76537177903541]},"properties":{"name":"Arlay","population":1217,"contributions":1,"per_cent":0.082,"insee":"39017"}},{"type":"Feature","geometry":{"type":"Point","coordinates":[5.522281565137806,43.556467416302546]},"properties":{"name":"Saint-Marc-Jaumegarde","population":1243,"contributions":1,"per_cent":0.08,"insee":"13095"}},{"type":"Feature","geometry":{"type":"Point","coordinates":[4.5924227951567875,48.727971834301194]},"properties":{"name":"Vitry-le-Fran\u00e7ois","population":11743,"contributions":18,"per_cent":0.153,"insee":"51649"}},{"type":"Feature","geometry":{"type":"Point","coordinates":[2.576314643331066,48.73529455923299]},"properties":{"name":"Santeny","population":4045,"contributions":3,"per_cent":0.074,"insee":"94070"}},{"type":"Feature","geometry":{"type":"Point","coordinates":[1.13781765566835,49.882469485771075]},"properties":{"name":"Arques-la-Bataille","population":2590,"contributions":10,"per_cent":0.386,"insee":"76026"}},{"type":"Feature","geometry":{"type":"Point","coordinates":[2.1943131304678487,48.99370824439627]},"properties":{"name":"Montigny-l\u00e8s-Cormeilles","population":21638,"contributions":10,"per_cent":0.046,"insee":"95424"}},{"type":"Feature","geometry":{"type":"Point","coordinates":[5.966127962761988,43.994664707294774]},"properties":{"name":"Les M\u00e9es","population":3740,"contributions":1,"per_cent":0.027,"insee":"04116"}},{"type":"Feature","geometry":{"type":"Point","coordinates":[7.5056870698855676,48.61906631667674]},"properties":{"name":"Marlenheim","population":4267,"contributions":1,"per_cent":0.023,"insee":"67282"}},{"type":"Feature","geometry":{"type":"Point","coordinates":[-0.7119448548378082,48.125891017697995]},"properties":{"name":"Louvern\u00e9","population":4386,"contributions":14,"per_cent":0.319,"insee":"53140"}},{"type":"Feature","geometry":{"type":"Point","coordinates":[4.090351356188664,46.27531325230686]},"properties":{"name":"Semur-en-Brionnais","population":607,"contributions":1,"per_cent":0.165,"insee":"71510"}},{"type":"Feature","geometry":{"type":"Point","coordinates":[-1.5758728629651189,48.21240640954021]},"properties":{"name":"Saint-Sulpice-la-For\u00eat","population":1378,"contributions":2,"per_cent":0.145,"insee":"35315"}},{"type":"Feature","geometry":{"type":"Point","coordinates":[2.5039637158869508,49.04220246972892]},"properties":{"name":"Louvres","population":10478,"contributions":2,"per_cent":0.019,"insee":"95351"}},{"type":"Feature","geometry":{"type":"Point","coordinates":[5.34643923777411,45.009924291721575]},"properties":{"name":"Saint-Laurent-en-Royans","population":1432,"contributions":1,"per_cent":0.07,"insee":"26311"}},{"type":"Feature","geometry":{"type":"Point","coordinates":[3.0805186415734873,50.57307430827882]},"properties":{"name":"Vendeville","population":1584,"contributions":1,"per_cent":0.063,"insee":"59609"}},{"type":"Feature","geometry":{"type":"Point","coordinates":[5.838311046365745,44.08275322151086]},"properties":{"name":"Cruis","population":641,"contributions":1,"per_cent":0.156,"insee":"04065"}},{"type":"Feature","geometry":{"type":"Point","coordinates":[-1.1398562924871387,47.91332971924901]},"properties":{"name":"Fontaine-Couverte","population":436,"contributions":1,"per_cent":0.229,"insee":"53098"}},{"type":"Feature","geometry":{"type":"Point","coordinates":[-3.3496637660344617,47.70963263626797]},"properties":{"name":"Port-Louis","population":2636,"contributions":8,"per_cent":0.303,"insee":"56181"}},{"type":"Feature","geometry":{"type":"Point","coordinates":[2.4298798101903616,49.31361576373018]},"properties":{"name":"Cauffry","population":2581,"contributions":1,"per_cent":0.039,"insee":"60134"}},{"type":"Feature","geometry":{"type":"Point","coordinates":[-1.9592638913150324,48.46600430528192]},"properties":{"name":"Saint-H\u00e9len","population":1497,"contributions":1,"per_cent":0.067,"insee":"22299"}},{"type":"Feature","geometry":{"type":"Point","coordinates":[6.09898818748233,45.44628848065451]},"properties":{"name":"D\u00e9trier","population":429,"contributions":2,"per_cent":0.466,"insee":"73099"}},{"type":"Feature","geometry":{"type":"Point","coordinates":[6.310897714154439,44.305330219962194]},"properties":{"name":"Auzet","population":98,"contributions":1,"per_cent":1.02,"insee":"04017"}},{"type":"Feature","geometry":{"type":"Point","coordinates":[1.6345826471585625,50.41972331047992]},"properties":{"name":"Rang-du-Fliers","population":4224,"contributions":1,"per_cent":0.024,"insee":"62688"}},{"type":"Feature","geometry":{"type":"Point","coordinates":[-0.38641194581513105,47.70906961290007]},"properties":{"name":"Morannes sur Sarthe-Daumeray","population":3677,"contributions":2,"per_cent":0.054,"insee":"49220"}},{"type":"Feature","geometry":{"type":"Point","coordinates":[2.173209398186478,42.88478359127819]},"properties":{"name":"Quillan","population":3238,"contributions":34,"per_cent":1.05,"insee":"11304"}},{"type":"Feature","geometry":{"type":"Point","coordinates":[5.675512686635726,45.155136264525126]},"properties":{"name":"Seyssins","population":7783,"contributions":55,"per_cent":0.707,"insee":"38486"}},{"type":"Feature","geometry":{"type":"Point","coordinates":[1.9837093243894577,48.818768894275294]},"properties":{"name":"Les Clayes-sous-Bois","population":17560,"contributions":62,"per_cent":0.353,"insee":"78165"}},{"type":"Feature","geometry":{"type":"Point","coordinates":[1.533205149098656,49.082318387321344]},"properties":{"name":"Giverny","population":496,"contributions":2,"per_cent":0.403,"insee":"27285"}},{"type":"Feature","geometry":{"type":"Point","coordinates":[-0.19363162875419654,47.82159917836795]},"properties":{"name":"Parc\u00e9-sur-Sarthe","population":2094,"contributions":1,"per_cent":0.048,"insee":"72228"}},{"type":"Feature","geometry":{"type":"Point","coordinates":[4.672474209486824,45.30157279710593]},"properties":{"name":"Savas","population":899,"contributions":1,"per_cent":0.111,"insee":"07310"}},{"type":"Feature","geometry":{"type":"Point","coordinates":[0.07622851847375088,43.20943363659119]},"properties":{"name":"Laloub\u00e8re","population":1880,"contributions":11,"per_cent":0.585,"insee":"65251"}},{"type":"Feature","geometry":{"type":"Point","coordinates":[7.4137545310072,48.76427121821509]},"properties":{"name":"Steinbourg","population":1965,"contributions":1,"per_cent":0.051,"insee":"67478"}},{"type":"Feature","geometry":{"type":"Point","coordinates":[1.3599850167205163,46.108856992866805]},"properties":{"name":"Bessines-sur-Gartempe","population":2818,"contributions":1,"per_cent":0.035,"insee":"87014"}},{"type":"Feature","geometry":{"type":"Point","coordinates":[0.8215053708115657,49.512152833291395]},"properties":{"name":"Sainte-Marguerite-sur-Duclair","population":2028,"contributions":1,"per_cent":0.049,"insee":"76608"}},{"type":"Feature","geometry":{"type":"Point","coordinates":[4.740918599275608,46.24118076945819]},"properties":{"name":"Saint-Amour-Bellevue","population":567,"contributions":1,"per_cent":0.176,"insee":"71385"}},{"type":"Feature","geometry":{"type":"Point","coordinates":[1.4196046334132117,48.795241140908715]},"properties":{"name":"Abondant","population":2368,"contributions":2,"per_cent":0.084,"insee":"28001"}},{"type":"Feature","geometry":{"type":"Point","coordinates":[7.6652717053319614,48.643762873769376]},"properties":{"name":"Pfulgriesheim","population":1310,"contributions":1,"per_cent":0.076,"insee":"67375"}},{"type":"Feature","geometry":{"type":"Point","coordinates":[6.134068998245771,48.63131127747187]},"properties":{"name":"Chavigny","population":1791,"contributions":2,"per_cent":0.112,"insee":"54123"}},{"type":"Feature","geometry":{"type":"Point","coordinates":[-1.9073998462947854,47.03436789684665]},"properties":{"name":"Villeneuve-en-Retz","population":4911,"contributions":1,"per_cent":0.02,"insee":"44021"}},{"type":"Feature","geometry":{"type":"Point","coordinates":[2.6579223086485277,48.544316061001695]},"properties":{"name":"Melun","population":39947,"contributions":93,"per_cent":0.233,"insee":"77288"}},{"type":"Feature","geometry":{"type":"Point","coordinates":[4.003942165127805,45.131190522492396]},"properties":{"name":"Rosi\u00e8res","population":1524,"contributions":1,"per_cent":0.066,"insee":"43165"}},{"type":"Feature","geometry":{"type":"Point","coordinates":[-0.5182200570812597,48.15630903984663]},"properties":{"name":"Br\u00e9e","population":545,"contributions":3,"per_cent":0.55,"insee":"53043"}},{"type":"Feature","geometry":{"type":"Point","coordinates":[3.5922219908011006,43.68337576303866]},"properties":{"name":"Aniane","population":2915,"contributions":15,"per_cent":0.515,"insee":"34010"}},{"type":"Feature","geometry":{"type":"Point","coordinates":[4.65377343529569,45.91708871644179]},"properties":{"name":"Alix","population":768,"contributions":1,"per_cent":0.13,"insee":"69004"}},{"type":"Feature","geometry":{"type":"Point","coordinates":[6.638342921864722,49.225264114225816]},"properties":{"name":"Falck","population":2495,"contributions":1,"per_cent":0.04,"insee":"57205"}},{"type":"Feature","geometry":{"type":"Point","coordinates":[-0.8242000522744383,45.576399477603644]},"properties":{"name":"Cozes","population":2147,"contributions":5,"per_cent":0.233,"insee":"17131"}},{"type":"Feature","geometry":{"type":"Point","coordinates":[2.8535467736509266,49.46669815408497]},"properties":{"name":"Longueil-Annel","population":2624,"contributions":1,"per_cent":0.038,"insee":"60368"}},{"type":"Feature","geometry":{"type":"Point","coordinates":[3.0331273862736947,50.45721881535529]},"properties":{"name":"Ostricourt","population":5367,"contributions":1,"per_cent":0.019,"insee":"59452"}},{"type":"Feature","geometry":{"type":"Point","coordinates":[-0.8192479717436237,44.79355557940542]},"properties":{"name":"Saint-Jean-d'Illac","population":8678,"contributions":2,"per_cent":0.023,"insee":"33422"}},{"type":"Feature","geometry":{"type":"Point","coordinates":[6.616924733770536,48.70213734338473]},"properties":{"name":"Coincourt","population":122,"contributions":1,"per_cent":0.82,"insee":"54133"}},{"type":"Feature","geometry":{"type":"Point","coordinates":[2.712567355297558,50.421097641794276]},"properties":{"name":"Aix-Noulette","population":3915,"contributions":5,"per_cent":0.128,"insee":"62019"}},{"type":"Feature","geometry":{"type":"Point","coordinates":[-0.9403857391412468,43.798215546553536]},"properties":{"name":"Pontonx-sur-l'Adour","population":2839,"contributions":2,"per_cent":0.07,"insee":"40230"}},{"type":"Feature","geometry":{"type":"Point","coordinates":[1.3740983193779117,43.66707811293277]},"properties":{"name":"Beauzelle","population":6676,"contributions":11,"per_cent":0.165,"insee":"31056"}},{"type":"Feature","geometry":{"type":"Point","coordinates":[1.3567934985196357,43.73917693509877]},"properties":{"name":"Saint-Jory","population":5902,"contributions":1,"per_cent":0.017,"insee":"31490"}},{"type":"Feature","geometry":{"type":"Point","coordinates":[-1.2231835043261994,43.46802190785691]},"properties":{"name":"Bardos","population":1828,"contributions":1,"per_cent":0.055,"insee":"64094"}},{"type":"Feature","geometry":{"type":"Point","coordinates":[2.810031117004887,45.57568591843109]},"properties":{"name":"Mont-Dore","population":1280,"contributions":1,"per_cent":0.078,"insee":"63236"}},{"type":"Feature","geometry":{"type":"Point","coordinates":[3.5939026212991623,47.90183012015917]},"properties":{"name":"Seignelay","population":1485,"contributions":2,"per_cent":0.135,"insee":"89382"}},{"type":"Feature","geometry":{"type":"Point","coordinates":[1.5517047872965064,48.58905027003629]},"properties":{"name":"Pierres","population":2769,"contributions":3,"per_cent":0.108,"insee":"28298"}},{"type":"Feature","geometry":{"type":"Point","coordinates":[1.4902347390779822,43.47145044696501]},"properties":{"name":"Corronsac","population":839,"contributions":1,"per_cent":0.119,"insee":"31151"}},{"type":"Feature","geometry":{"type":"Point","coordinates":[5.727257710883952,45.06897475434621]},"properties":{"name":"Champ-sur-Drac","population":3090,"contributions":3,"per_cent":0.097,"insee":"38071"}},{"type":"Feature","geometry":{"type":"Point","coordinates":[4.233353743883787,43.737033188341044]},"properties":{"name":"Verg\u00e8ze","population":5243,"contributions":3,"per_cent":0.057,"insee":"30344"}},{"type":"Feature","geometry":{"type":"Point","coordinates":[2.968731198276964,50.67008789545686]},"properties":{"name":"P\u00e9renchies","population":8413,"contributions":117,"per_cent":1.391,"insee":"59457"}},{"type":"Feature","geometry":{"type":"Point","coordinates":[0.5139578643517422,48.11972911054512]},"properties":{"name":"Tuff\u00e9 Val de la Ch\u00e9ronne","population":1657,"contributions":1,"per_cent":0.06,"insee":"72363"}},{"type":"Feature","geometry":{"type":"Point","coordinates":[2.8236505348312235,48.8861839499186]},"properties":{"name":"Montry","population":3688,"contributions":9,"per_cent":0.244,"insee":"77315"}},{"type":"Feature","geometry":{"type":"Point","coordinates":[-1.3772397348029108,46.182900754681626]},"properties":{"name":"Le Bois-Plage-en-R\u00e9","population":2246,"contributions":1,"per_cent":0.045,"insee":"17051"}},{"type":"Feature","geometry":{"type":"Point","coordinates":[0.48102035839193186,44.407820199056076]},"properties":{"name":"Castelmoron-sur-Lot","population":1756,"contributions":18,"per_cent":1.025,"insee":"47054"}},{"type":"Feature","geometry":{"type":"Point","coordinates":[2.869837915479354,43.14838212781301]},"properties":{"name":"Bizanet","population":1731,"contributions":2,"per_cent":0.116,"insee":"11040"}},{"type":"Feature","geometry":{"type":"Point","coordinates":[2.769680050471887,48.43162217995636]},"properties":{"name":"Vulaines-sur-Seine","population":2732,"contributions":3,"per_cent":0.11,"insee":"77533"}},{"type":"Feature","geometry":{"type":"Point","coordinates":[4.7212635618141645,46.058181378498126]},"properties":{"name":"Saint-Georges-de-Reneins","population":4394,"contributions":2,"per_cent":0.046,"insee":"69206"}},{"type":"Feature","geometry":{"type":"Point","coordinates":[2.4335400132111276,50.96910496082392]},"properties":{"name":"Bergues","population":3637,"contributions":2,"per_cent":0.055,"insee":"59067"}},{"type":"Feature","geometry":{"type":"Point","coordinates":[-61.06893303872063,14.640520595495868]},"properties":{"name":"Fort-de-France","population":78126,"contributions":13,"per_cent":0.017,"insee":"97209"}},{"type":"Feature","geometry":{"type":"Point","coordinates":[4.494153066539454,45.89247520824711]},"properties":{"name":"Vindry-sur-Turdine","population":5234,"contributions":2,"per_cent":0.038,"insee":"69157"}},{"type":"Feature","geometry":{"type":"Point","coordinates":[-3.147861392142627,47.836985082808795]},"properties":{"name":"Languidic","population":8010,"contributions":2,"per_cent":0.025,"insee":"56101"}},{"type":"Feature","geometry":{"type":"Point","coordinates":[-1.0803973915847573,46.29335114789967]},"properties":{"name":"Charron","population":1995,"contributions":1,"per_cent":0.05,"insee":"17091"}},{"type":"Feature","geometry":{"type":"Point","coordinates":[4.773649227299005,45.914084769411865]},"properties":{"name":"Quincieux","population":3480,"contributions":7,"per_cent":0.201,"insee":"69163"}},{"type":"Feature","geometry":{"type":"Point","coordinates":[2.420537789358023,49.18936157915887]},"properties":{"name":"Gouvieux","population":9023,"contributions":10,"per_cent":0.111,"insee":"60282"}},{"type":"Feature","geometry":{"type":"Point","coordinates":[-4.142596564319735,48.305559227171706]},"properties":{"name":"Le Faou","population":1735,"contributions":1,"per_cent":0.058,"insee":"29053"}},{"type":"Feature","geometry":{"type":"Point","coordinates":[1.5651481600173822,44.33329993615719]},"properties":{"name":"Lalbenque","population":1735,"contributions":2,"per_cent":0.115,"insee":"46148"}},{"type":"Feature","geometry":{"type":"Point","coordinates":[0.7251601117567432,46.813108809818445]},"properties":{"name":"Coussay-les-Bois","population":978,"contributions":1,"per_cent":0.102,"insee":"86086"}},{"type":"Feature","geometry":{"type":"Point","coordinates":[-1.816343492594703,48.12210406716139]},"properties":{"name":"L'Hermitage","population":4533,"contributions":11,"per_cent":0.243,"insee":"35131"}},{"type":"Feature","geometry":{"type":"Point","coordinates":[5.802899003141134,45.58579010450147]},"properties":{"name":"Nances","population":502,"contributions":1,"per_cent":0.199,"insee":"73184"}},{"type":"Feature","geometry":{"type":"Point","coordinates":[4.798790581008984,43.90018740539852]},"properties":{"name":"Rognonas","population":4062,"contributions":6,"per_cent":0.148,"insee":"13083"}},{"type":"Feature","geometry":{"type":"Point","coordinates":[2.827110580282602,50.40402657961555]},"properties":{"name":"Avion","population":17583,"contributions":9,"per_cent":0.051,"insee":"62065"}},{"type":"Feature","geometry":{"type":"Point","coordinates":[1.6243717754570313,43.08677782477058]},"properties":{"name":"Saint-Jean-du-Falga","population":2863,"contributions":2,"per_cent":0.07,"insee":"09265"}},{"type":"Feature","geometry":{"type":"Point","coordinates":[6.83097502439016,47.620052846814]},"properties":{"name":"Bavilliers","population":4680,"contributions":5,"per_cent":0.107,"insee":"90008"}},{"type":"Feature","geometry":{"type":"Point","coordinates":[-1.4961212843766156,47.99980525712724]},"properties":{"name":"Amanlis","population":1733,"contributions":1,"per_cent":0.058,"insee":"35002"}},{"type":"Feature","geometry":{"type":"Point","coordinates":[-1.416270149833475,47.87221088062034]},"properties":{"name":"Co\u00ebsmes","population":1466,"contributions":1,"per_cent":0.068,"insee":"35082"}},{"type":"Feature","geometry":{"type":"Point","coordinates":[5.53199873075311,45.47175363168371]},"properties":{"name":"Villages du Lac de Paladru","population":2507,"contributions":1,"per_cent":0.04,"insee":"38292"}},{"type":"Feature","geometry":{"type":"Point","coordinates":[-4.328045263751018,47.99526921387853]},"properties":{"name":"Landudec","population":1454,"contributions":1,"per_cent":0.069,"insee":"29108"}},{"type":"Feature","geometry":{"type":"Point","coordinates":[-1.1338466877160973,46.22816355362192]},"properties":{"name":"Marsilly","population":3087,"contributions":2,"per_cent":0.065,"insee":"17222"}},{"type":"Feature","geometry":{"type":"Point","coordinates":[-4.139715476470275,48.329907605582925]},"properties":{"name":"Hanvec","population":2029,"contributions":1,"per_cent":0.049,"insee":"29078"}},{"type":"Feature","geometry":{"type":"Point","coordinates":[2.7061133756698106,48.553787900924426]},"properties":{"name":"Maincy","population":1798,"contributions":1,"per_cent":0.056,"insee":"77269"}},{"type":"Feature","geometry":{"type":"Point","coordinates":[3.0199069926765203,50.338089904429246]},"properties":{"name":"Brebi\u00e8res","population":5083,"contributions":1,"per_cent":0.02,"insee":"62173"}},{"type":"Feature","geometry":{"type":"Point","coordinates":[6.490134545437111,43.84487641322661]},"properties":{"name":"Castellane","population":1497,"contributions":1,"per_cent":0.067,"insee":"04039"}},{"type":"Feature","geometry":{"type":"Point","coordinates":[5.635913104333272,46.23815020819691]},"properties":{"name":"Bellignat","population":3632,"contributions":2,"per_cent":0.055,"insee":"01031"}},{"type":"Feature","geometry":{"type":"Point","coordinates":[7.436504527332616,48.06520148795124]},"properties":{"name":"Andolsheim","population":2172,"contributions":3,"per_cent":0.138,"insee":"68007"}},{"type":"Feature","geometry":{"type":"Point","coordinates":[-3.1374360172938354,48.66983686509369]},"properties":{"name":"Saint-Clet","population":876,"contributions":3,"per_cent":0.342,"insee":"22283"}},{"type":"Feature","geometry":{"type":"Point","coordinates":[1.1776434326699043,49.520672467030984]},"properties":{"name":"Quincampoix","population":3007,"contributions":2,"per_cent":0.067,"insee":"76517"}},{"type":"Feature","geometry":{"type":"Point","coordinates":[-0.16073948760320428,45.81247089904214]},"properties":{"name":"Neuvicq-le-Ch\u00e2teau","population":317,"contributions":1,"per_cent":0.315,"insee":"17261"}},{"type":"Feature","geometry":{"type":"Point","coordinates":[-2.8311407548243483,47.69760462200203]},"properties":{"name":"Plescop","population":5999,"contributions":15,"per_cent":0.25,"insee":"56158"}},{"type":"Feature","geometry":{"type":"Point","coordinates":[2.928447532782619,48.675543233051194]},"properties":{"name":"Bernay-Vilbert","population":864,"contributions":1,"per_cent":0.116,"insee":"77031"}},{"type":"Feature","geometry":{"type":"Point","coordinates":[-3.525013715222406,47.902151560062684]},"properties":{"name":"Tr\u00e9m\u00e9ven","population":2315,"contributions":3,"per_cent":0.13,"insee":"29297"}},{"type":"Feature","geometry":{"type":"Point","coordinates":[3.6605881268314433,43.49412521428941]},"properties":{"name":"Poussan","population":5983,"contributions":5,"per_cent":0.084,"insee":"34213"}},{"type":"Feature","geometry":{"type":"Point","coordinates":[5.503659554168652,44.031284794112196]},"properties":{"name":"Saint-Christol","population":1373,"contributions":1,"per_cent":0.073,"insee":"84107"}},{"type":"Feature","geometry":{"type":"Point","coordinates":[-4.381947749530848,48.533046445871356]},"properties":{"name":"Le Drennec","population":1855,"contributions":2,"per_cent":0.108,"insee":"29047"}},{"type":"Feature","geometry":{"type":"Point","coordinates":[-4.221167925857598,48.44370716796157]},"properties":{"name":"Pencran","population":2010,"contributions":2,"per_cent":0.1,"insee":"29156"}},{"type":"Feature","geometry":{"type":"Point","coordinates":[3.8517115562936333,44.04327251683241]},"properties":{"name":"Lasalle","population":1122,"contributions":5,"per_cent":0.446,"insee":"30140"}},{"type":"Feature","geometry":{"type":"Point","coordinates":[6.1935288712906,43.943132577382336]},"properties":{"name":"Estoublon","population":490,"contributions":1,"per_cent":0.204,"insee":"04084"}},{"type":"Feature","geometry":{"type":"Point","coordinates":[0.144097533152652,48.102577631831075]},"properties":{"name":"La Bazoge","population":3640,"contributions":6,"per_cent":0.165,"insee":"72024"}},{"type":"Feature","geometry":{"type":"Point","coordinates":[0.05539475449611581,43.195057781996404]},"properties":{"name":"Odos","population":3253,"contributions":51,"per_cent":1.568,"insee":"65331"}},{"type":"Feature","geometry":{"type":"Point","coordinates":[0.3914920566997535,49.41740313823382]},"properties":{"name":"Conteville","population":1004,"contributions":1,"per_cent":0.1,"insee":"27169"}},{"type":"Feature","geometry":{"type":"Point","coordinates":[2.663238047416666,48.57013184656527]},"properties":{"name":"Voisenon","population":1140,"contributions":2,"per_cent":0.175,"insee":"77528"}},{"type":"Feature","geometry":{"type":"Point","coordinates":[0.06573991242108264,43.315699614596326]},"properties":{"name":"Andrest","population":1388,"contributions":3,"per_cent":0.216,"insee":"65007"}},{"type":"Feature","geometry":{"type":"Point","coordinates":[6.232884401492065,48.942979541071324]},"properties":{"name":"Saint-Jure","population":287,"contributions":1,"per_cent":0.348,"insee":"57617"}},{"type":"Feature","geometry":{"type":"Point","coordinates":[-0.9801476035249534,45.70203625782656]},"properties":{"name":"L'\u00c9guille","population":878,"contributions":3,"per_cent":0.342,"insee":"17151"}},{"type":"Feature","geometry":{"type":"Point","coordinates":[0.0019866307555942066,43.162574939785195]},"properties":{"name":"Lanne","population":595,"contributions":1,"per_cent":0.168,"insee":"65257"}},{"type":"Feature","geometry":{"type":"Point","coordinates":[6.410721382402165,47.4762533234684]},"properties":{"name":"Nans","population":97,"contributions":1,"per_cent":1.031,"insee":"25419"}},{"type":"Feature","geometry":{"type":"Point","coordinates":[0.34740033059605663,42.84676337133226]},"properties":{"name":"Guchan","population":144,"contributions":1,"per_cent":0.694,"insee":"65211"}},{"type":"Feature","geometry":{"type":"Point","coordinates":[6.071633255516301,43.09688915044061]},"properties":{"name":"Carqueiranne","population":9555,"contributions":3,"per_cent":0.031,"insee":"83034"}},{"type":"Feature","geometry":{"type":"Point","coordinates":[4.823454258977673,49.73193023021628]},"properties":{"name":"Vivier-au-Court","population":2930,"contributions":1,"per_cent":0.034,"insee":"08488"}},{"type":"Feature","geometry":{"type":"Point","coordinates":[3.6907006938585654,43.446941033783766]},"properties":{"name":"Balaruc-les-Bains","population":6867,"contributions":3,"per_cent":0.044,"insee":"34023"}},{"type":"Feature","geometry":{"type":"Point","coordinates":[-2.1273442695887215,47.17523832486206]},"properties":{"name":"Saint-Michel-Chef-Chef","population":5173,"contributions":6,"per_cent":0.116,"insee":"44182"}},{"type":"Feature","geometry":{"type":"Point","coordinates":[-0.37794129801352677,48.71132658012491]},"properties":{"name":"Briouze","population":1526,"contributions":1,"per_cent":0.066,"insee":"61063"}},{"type":"Feature","geometry":{"type":"Point","coordinates":[7.322060273097688,47.789304416435876]},"properties":{"name":"Kingersheim","population":13267,"contributions":15,"per_cent":0.113,"insee":"68166"}},{"type":"Feature","geometry":{"type":"Point","coordinates":[4.464493411923903,43.504297200580005]},"properties":{"name":"Saintes-Maries-de-la-Mer","population":2157,"contributions":32,"per_cent":1.484,"insee":"13096"}},{"type":"Feature","geometry":{"type":"Point","coordinates":[3.226500085346736,45.83826950303335]},"properties":{"name":"Lussat","population":916,"contributions":1,"per_cent":0.109,"insee":"63200"}},{"type":"Feature","geometry":{"type":"Point","coordinates":[5.004648510064402,44.59373401816818]},"properties":{"name":"Pont-de-Barret","population":670,"contributions":1,"per_cent":0.149,"insee":"26249"}},{"type":"Feature","geometry":{"type":"Point","coordinates":[-1.0911482814496607,46.21270333439875]},"properties":{"name":"Saint-Xandre","population":4905,"contributions":43,"per_cent":0.877,"insee":"17414"}},{"type":"Feature","geometry":{"type":"Point","coordinates":[4.565580690169178,45.81990586851876]},"properties":{"name":"Savigny","population":2003,"contributions":4,"per_cent":0.2,"insee":"69175"}},{"type":"Feature","geometry":{"type":"Point","coordinates":[4.9124277733899815,45.20612601881617]},"properties":{"name":"Saint-Jean-de-Galaure","population":794,"contributions":8,"per_cent":1.008,"insee":"26216"}},{"type":"Feature","geometry":{"type":"Point","coordinates":[-1.9896554346455948,47.06114251587163]},"properties":{"name":"Les Moutiers-en-Retz","population":1703,"contributions":8,"per_cent":0.47,"insee":"44106"}},{"type":"Feature","geometry":{"type":"Point","coordinates":[2.305206304512378,44.856280121503715]},"properties":{"name":"Saint-Mamet-la-Salvetat","population":1549,"contributions":1,"per_cent":0.065,"insee":"15196"}},{"type":"Feature","geometry":{"type":"Point","coordinates":[1.1574226558026182,49.570876573076355]},"properties":{"name":"Fontaine-le-Bourg","population":1784,"contributions":1,"per_cent":0.056,"insee":"76271"}},{"type":"Feature","geometry":{"type":"Point","coordinates":[6.25017815105374,45.92885067542891]},"properties":{"name":"Dingy-Saint-Clair","population":1438,"contributions":1,"per_cent":0.07,"insee":"74102"}},{"type":"Feature","geometry":{"type":"Point","coordinates":[-0.5092728141846984,44.71120734963273]},"properties":{"name":"Saint-M\u00e9dard-d'Eyrans","population":3040,"contributions":1,"per_cent":0.033,"insee":"33448"}},{"type":"Feature","geometry":{"type":"Point","coordinates":[-0.7963491225803069,45.545243980441676]},"properties":{"name":"\u00c9pargnes","population":854,"contributions":1,"per_cent":0.117,"insee":"17152"}},{"type":"Feature","geometry":{"type":"Point","coordinates":[1.5366801232154674,49.57730512677606]},"properties":{"name":"La Fert\u00e9-Saint-Samson","population":462,"contributions":1,"per_cent":0.216,"insee":"76261"}},{"type":"Feature","geometry":{"type":"Point","coordinates":[1.3867364605955532,45.85263600010105]},"properties":{"name":"Saint-Just-le-Martel","population":2670,"contributions":2,"per_cent":0.075,"insee":"87156"}},{"type":"Feature","geometry":{"type":"Point","coordinates":[5.2454576080156725,45.524007386381754]},"properties":{"name":"Culin","population":752,"contributions":1,"per_cent":0.133,"insee":"38141"}},{"type":"Feature","geometry":{"type":"Point","coordinates":[2.220811485002703,42.93130311199986]},"properties":{"name":"Esp\u00e9raza","population":1800,"contributions":5,"per_cent":0.278,"insee":"11129"}},{"type":"Feature","geometry":{"type":"Point","coordinates":[3.2401611226494436,45.64421525934167]},"properties":{"name":"Vic-le-Comte","population":5191,"contributions":5,"per_cent":0.096,"insee":"63457"}},{"type":"Feature","geometry":{"type":"Point","coordinates":[2.184852413347646,47.77908519567518]},"properties":{"name":"Tigy","population":2325,"contributions":1,"per_cent":0.043,"insee":"45324"}},{"type":"Feature","geometry":{"type":"Point","coordinates":[-1.835345452710538,47.29728255838397]},"properties":{"name":"Cordemais","population":3729,"contributions":9,"per_cent":0.241,"insee":"44045"}},{"type":"Feature","geometry":{"type":"Point","coordinates":[6.113469282958245,45.3802187485632]},"properties":{"name":"Allevard","population":4062,"contributions":1,"per_cent":0.025,"insee":"38006"}},{"type":"Feature","geometry":{"type":"Point","coordinates":[5.83713721323055,43.65898793363309]},"properties":{"name":"Ginasservis","population":1859,"contributions":7,"per_cent":0.377,"insee":"83066"}},{"type":"Feature","geometry":{"type":"Point","coordinates":[1.6490100817687183,47.84208618774076]},"properties":{"name":"Le Bardon","population":1011,"contributions":1,"per_cent":0.099,"insee":"45020"}},{"type":"Feature","geometry":{"type":"Point","coordinates":[-1.2648445438594238,48.397526117226775]},"properties":{"name":"Saint-Germain-en-Cogl\u00e8s","population":2053,"contributions":2,"per_cent":0.097,"insee":"35273"}},{"type":"Feature","geometry":{"type":"Point","coordinates":[2.9449731939910597,42.76389374660762]},"properties":{"name":"Claira","population":4250,"contributions":1,"per_cent":0.024,"insee":"66050"}},{"type":"Feature","geometry":{"type":"Point","coordinates":[1.6485623737429245,48.59741258693233]},"properties":{"name":"Hanches","population":2691,"contributions":4,"per_cent":0.149,"insee":"28191"}},{"type":"Feature","geometry":{"type":"Point","coordinates":[-0.9009830797271178,46.950868882097424]},"properties":{"name":"Saint-Laurent-sur-S\u00e8vre","population":3620,"contributions":26,"per_cent":0.718,"insee":"85238"}},{"type":"Feature","geometry":{"type":"Point","coordinates":[6.09283479179748,43.16349908670301]},"properties":{"name":"La Crau","population":18506,"contributions":12,"per_cent":0.065,"insee":"83047"}},{"type":"Feature","geometry":{"type":"Point","coordinates":[2.9818442625958967,50.62490661548304]},"properties":{"name":"Sequedin","population":4739,"contributions":8,"per_cent":0.169,"insee":"59566"}},{"type":"Feature","geometry":{"type":"Point","coordinates":[1.2821787077026032,43.28140443623533]},"properties":{"name":"Lacaugne","population":229,"contributions":1,"per_cent":0.437,"insee":"31258"}},{"type":"Feature","geometry":{"type":"Point","coordinates":[5.9170831907654895,45.55191853522549]},"properties":{"name":"Jacob-Bellecombette","population":4070,"contributions":8,"per_cent":0.197,"insee":"73137"}},{"type":"Feature","geometry":{"type":"Point","coordinates":[2.4660808668281264,49.0245883383236]},"properties":{"name":"Goussainville","population":30642,"contributions":5,"per_cent":0.016,"insee":"95280"}},{"type":"Feature","geometry":{"type":"Point","coordinates":[-3.7657070439880784,48.40302260650541]},"properties":{"name":"Berrien","population":907,"contributions":1,"per_cent":0.11,"insee":"29007"}},{"type":"Feature","geometry":{"type":"Point","coordinates":[2.030960361331853,44.34987431538964]},"properties":{"name":"Villefranche-de-Rouergue","population":11781,"contributions":14,"per_cent":0.119,"insee":"12300"}},{"type":"Feature","geometry":{"type":"Point","coordinates":[5.902624979529096,47.30341486831107]},"properties":{"name":"Moncley","population":278,"contributions":2,"per_cent":0.719,"insee":"25383"}},{"type":"Feature","geometry":{"type":"Point","coordinates":[-1.4416287824798963,43.462180695598626]},"properties":{"name":"Saint-Pierre-d'Irube","population":5167,"contributions":2,"per_cent":0.039,"insee":"64496"}},{"type":"Feature","geometry":{"type":"Point","coordinates":[-1.4756794745195139,49.00986742621033]},"properties":{"name":"Orval sur Sienne","population":1155,"contributions":2,"per_cent":0.173,"insee":"50388"}},{"type":"Feature","geometry":{"type":"Point","coordinates":[7.212428796392955,47.97031305819494]},"properties":{"name":"Soultzmatt","population":2402,"contributions":6,"per_cent":0.25,"insee":"68318"}},{"type":"Feature","geometry":{"type":"Point","coordinates":[4.496175994021575,47.355566708930866]},"properties":{"name":"Beurizot","population":121,"contributions":1,"per_cent":0.826,"insee":"21069"}},{"type":"Feature","geometry":{"type":"Point","coordinates":[3.391727112907122,44.070507964997695]},"properties":{"name":"Tr\u00e8ves","population":121,"contributions":1,"per_cent":0.826,"insee":"30332"}},{"type":"Feature","geometry":{"type":"Point","coordinates":[-0.35201692321817235,49.11484421222468]},"properties":{"name":"Saint-Martin-de-Fontenay","population":2541,"contributions":2,"per_cent":0.079,"insee":"14623"}},{"type":"Feature","geometry":{"type":"Point","coordinates":[5.604419046287948,43.76083768150452]},"properties":{"name":"Grambois","population":1239,"contributions":1,"per_cent":0.081,"insee":"84052"}},{"type":"Feature","geometry":{"type":"Point","coordinates":[1.3041684317063436,47.50359302824024]},"properties":{"name":"Les Montils","population":1919,"contributions":3,"per_cent":0.156,"insee":"41147"}},{"type":"Feature","geometry":{"type":"Point","coordinates":[2.251819072109561,48.62619175451036]},"properties":{"name":"Linas","population":6813,"contributions":33,"per_cent":0.484,"insee":"91339"}},{"type":"Feature","geometry":{"type":"Point","coordinates":[-1.942863279259336,48.29629668005712]},"properties":{"name":"B\u00e9cherel","population":679,"contributions":1,"per_cent":0.147,"insee":"35022"}},{"type":"Feature","geometry":{"type":"Point","coordinates":[6.173140886066268,48.62064122238471]},"properties":{"name":"Ludres","population":6134,"contributions":3,"per_cent":0.049,"insee":"54328"}},{"type":"Feature","geometry":{"type":"Point","coordinates":[4.910200166079224,45.49281791275184]},"properties":{"name":"Jardin","population":2181,"contributions":2,"per_cent":0.092,"insee":"38199"}},{"type":"Feature","geometry":{"type":"Point","coordinates":[5.4397149642118094,43.651614069794306]},"properties":{"name":"Le Puy-Sainte-R\u00e9parade","population":5744,"contributions":3,"per_cent":0.052,"insee":"13080"}},{"type":"Feature","geometry":{"type":"Point","coordinates":[1.2954711128561487,48.750934306943414]},"properties":{"name":"Vert-en-Drouais","population":1075,"contributions":1,"per_cent":0.093,"insee":"28405"}},{"type":"Feature","geometry":{"type":"Point","coordinates":[-1.328259673883019,43.74971877004335]},"properties":{"name":"Soustons","population":8056,"contributions":16,"per_cent":0.199,"insee":"40310"}},{"type":"Feature","geometry":{"type":"Point","coordinates":[3.531555230650186,44.398467640841254]},"properties":{"name":"Ispagnac","population":893,"contributions":1,"per_cent":0.112,"insee":"48075"}},{"type":"Feature","geometry":{"type":"Point","coordinates":[5.103515994740335,45.71798516350982]},"properties":{"name":"Colombier-Saugnieu","population":2657,"contributions":2,"per_cent":0.075,"insee":"69299"}},{"type":"Feature","geometry":{"type":"Point","coordinates":[1.1036262211553836,49.591061486448375]},"properties":{"name":"Cl\u00e8res","population":1372,"contributions":1,"per_cent":0.073,"insee":"76179"}},{"type":"Feature","geometry":{"type":"Point","coordinates":[2.339952237421652,50.596919535496184]},"properties":{"name":"Liettres","population":331,"contributions":1,"per_cent":0.302,"insee":"62509"}},{"type":"Feature","geometry":{"type":"Point","coordinates":[-0.4847868714299515,47.86094159148777]},"properties":{"name":"Bou\u00e8re","population":1077,"contributions":1,"per_cent":0.093,"insee":"53036"}},{"type":"Feature","geometry":{"type":"Point","coordinates":[-0.2625583871784754,44.61669178651939]},"properties":{"name":"Gabarnac","population":348,"contributions":1,"per_cent":0.287,"insee":"33176"}},{"type":"Feature","geometry":{"type":"Point","coordinates":[-1.3319861906846695,47.233256769780915]},"properties":{"name":"Le Loroux-Bottereau","population":8327,"contributions":5,"per_cent":0.06,"insee":"44084"}},{"type":"Feature","geometry":{"type":"Point","coordinates":[2.6380696327292563,49.25351638839763]},"properties":{"name":"Villers-Saint-Frambourg-Ognon","population":712,"contributions":1,"per_cent":0.14,"insee":"60682"}},{"type":"Feature","geometry":{"type":"Point","coordinates":[6.228988915515935,43.56168514447751]},"properties":{"name":"Salernes","population":3800,"contributions":1,"per_cent":0.026,"insee":"83121"}},{"type":"Feature","geometry":{"type":"Point","coordinates":[5.989604107807174,45.533002513098246]},"properties":{"name":"Saint-Jeoire-Prieur\u00e9","population":1765,"contributions":1,"per_cent":0.057,"insee":"73249"}},{"type":"Feature","geometry":{"type":"Point","coordinates":[5.249376938089289,43.52391496682288]},"properties":{"name":"Velaux","population":8616,"contributions":55,"per_cent":0.638,"insee":"13112"}},{"type":"Feature","geometry":{"type":"Point","coordinates":[9.473988533144892,42.51577103004164]},"properties":{"name":"Vescovato","population":2855,"contributions":1,"per_cent":0.035,"insee":"2B346"}},{"type":"Feature","geometry":{"type":"Point","coordinates":[1.707123080506464,49.06207736345757]},"properties":{"name":"V\u00e9theuil","population":871,"contributions":1,"per_cent":0.115,"insee":"95651"}},{"type":"Feature","geometry":{"type":"Point","coordinates":[-1.5049117466710844,46.77027560257463]},"properties":{"name":"Le Poir\u00e9-sur-Vie","population":8530,"contributions":21,"per_cent":0.246,"insee":"85178"}},{"type":"Feature","geometry":{"type":"Point","coordinates":[1.5958174993741285,42.84684815512521]},"properties":{"name":"Tarascon-sur-Ari\u00e8ge","population":3028,"contributions":5,"per_cent":0.165,"insee":"09306"}},{"type":"Feature","geometry":{"type":"Point","coordinates":[5.625452845506746,43.43975310588705]},"properties":{"name":"Peynier","population":3513,"contributions":4,"per_cent":0.114,"insee":"13072"}},{"type":"Feature","geometry":{"type":"Point","coordinates":[4.946774146964436,44.87405921964636]},"properties":{"name":"Beaumont-l\u00e8s-Valence","population":3815,"contributions":1,"per_cent":0.026,"insee":"26037"}},{"type":"Feature","geometry":{"type":"Point","coordinates":[0.9872722752399383,47.307624597849035]},"properties":{"name":"Bl\u00e9r\u00e9","population":5250,"contributions":5,"per_cent":0.095,"insee":"37027"}},{"type":"Feature","geometry":{"type":"Point","coordinates":[-3.037664422933633,48.30991342390647]},"properties":{"name":"Corlay","population":945,"contributions":1,"per_cent":0.106,"insee":"22047"}},{"type":"Feature","geometry":{"type":"Point","coordinates":[2.48413664737167,49.253176825274856]},"properties":{"name":"Creil","population":35800,"contributions":11,"per_cent":0.031,"insee":"60175"}},{"type":"Feature","geometry":{"type":"Point","coordinates":[1.6986755650391177,43.60565132411434]},"properties":{"name":"Bourg-Saint-Bernard","population":1089,"contributions":1,"per_cent":0.092,"insee":"31082"}},{"type":"Feature","geometry":{"type":"Point","coordinates":[-1.380768146861545,49.08712932988743]},"properties":{"name":"Cambernon","population":699,"contributions":2,"per_cent":0.286,"insee":"50092"}},{"type":"Feature","geometry":{"type":"Point","coordinates":[2.43984277303044,48.9074353766654]},"properties":{"name":"Bobigny","population":54272,"contributions":53,"per_cent":0.098,"insee":"93008"}},{"type":"Feature","geometry":{"type":"Point","coordinates":[1.7817748683783967,43.89768258004258]},"properties":{"name":"Lisle-sur-Tarn","population":4682,"contributions":26,"per_cent":0.555,"insee":"81145"}},{"type":"Feature","geometry":{"type":"Point","coordinates":[1.9130051805499144,46.15721697657115]},"properties":{"name":"Sainte-Feyre","population":2472,"contributions":1,"per_cent":0.04,"insee":"23193"}},{"type":"Feature","geometry":{"type":"Point","coordinates":[3.006222335138361,45.93693233301613]},"properties":{"name":"Loubeyrat","population":1362,"contributions":2,"per_cent":0.147,"insee":"63198"}},{"type":"Feature","geometry":{"type":"Point","coordinates":[7.546615928548801,48.077335299301616]},"properties":{"name":"Kunheim","population":1779,"contributions":1,"per_cent":0.056,"insee":"68172"}},{"type":"Feature","geometry":{"type":"Point","coordinates":[0.9455766460454369,43.080451908864994]},"properties":{"name":"Mane","population":959,"contributions":2,"per_cent":0.209,"insee":"31315"}},{"type":"Feature","geometry":{"type":"Point","coordinates":[4.794766808905033,46.91491925573465]},"properties":{"name":"Chaudenay","population":1114,"contributions":1,"per_cent":0.09,"insee":"71119"}},{"type":"Feature","geometry":{"type":"Point","coordinates":[-1.194688868357175,48.27100866198818]},"properties":{"name":"Parc\u00e9","population":650,"contributions":1,"per_cent":0.154,"insee":"35214"}},{"type":"Feature","geometry":{"type":"Point","coordinates":[4.147499056820052,49.33724512162216]},"properties":{"name":"Pomacle","population":454,"contributions":2,"per_cent":0.441,"insee":"51439"}},{"type":"Feature","geometry":{"type":"Point","coordinates":[1.1293574898420609,48.29101180449478]},"properties":{"name":"Montigny-le-Chartif","population":608,"contributions":2,"per_cent":0.329,"insee":"28261"}},{"type":"Feature","geometry":{"type":"Point","coordinates":[-2.8428614555066916,47.66179074347632]},"properties":{"name":"Ploeren","population":6601,"contributions":21,"per_cent":0.318,"insee":"56164"}},{"type":"Feature","geometry":{"type":"Point","coordinates":[6.033180557010617,43.88591902069461]},"properties":{"name":"Brunet","population":290,"contributions":1,"per_cent":0.345,"insee":"04035"}},{"type":"Feature","geometry":{"type":"Point","coordinates":[-1.5724668668960264,49.07326970354395]},"properties":{"name":"Blainville-sur-Mer","population":1637,"contributions":9,"per_cent":0.55,"insee":"50058"}},{"type":"Feature","geometry":{"type":"Point","coordinates":[-0.5255726243266715,44.90833297683276]},"properties":{"name":"Bassens","population":7404,"contributions":4,"per_cent":0.054,"insee":"33032"}},{"type":"Feature","geometry":{"type":"Point","coordinates":[0.18848066341153685,43.35848742153061]},"properties":{"name":"S\u00e9nac","population":293,"contributions":1,"per_cent":0.341,"insee":"65418"}},{"type":"Feature","geometry":{"type":"Point","coordinates":[-1.8438885178903446,47.17653955921806]},"properties":{"name":"Rouans","population":3015,"contributions":1,"per_cent":0.033,"insee":"44145"}},{"type":"Feature","geometry":{"type":"Point","coordinates":[8.760066588044742,42.54505243634865]},"properties":{"name":"Calvi","population":5666,"contributions":2,"per_cent":0.035,"insee":"2B050"}},{"type":"Feature","geometry":{"type":"Point","coordinates":[2.178815178432746,48.91163694931134]},"properties":{"name":"Carri\u00e8res-sur-Seine","population":15003,"contributions":180,"per_cent":1.2,"insee":"78124"}},{"type":"Feature","geometry":{"type":"Point","coordinates":[-0.904618878265851,44.02744426066258]},"properties":{"name":"Morcenx-la-Nouvelle","population":5022,"contributions":1,"per_cent":0.02,"insee":"40197"}},{"type":"Feature","geometry":{"type":"Point","coordinates":[-3.161736554927675,47.672409748649926]},"properties":{"name":"Belz","population":3735,"contributions":10,"per_cent":0.268,"insee":"56013"}},{"type":"Feature","geometry":{"type":"Point","coordinates":[-1.3138456079406102,48.08232593066305]},"properties":{"name":"Cornill\u00e9","population":965,"contributions":1,"per_cent":0.104,"insee":"35087"}},{"type":"Feature","geometry":{"type":"Point","coordinates":[-0.5848013292834244,46.33727496249751]},"properties":{"name":"Coulon","population":2262,"contributions":2,"per_cent":0.088,"insee":"79100"}},{"type":"Feature","geometry":{"type":"Point","coordinates":[0.48649894926687576,44.8543050612872]},"properties":{"name":"Bergerac","population":26823,"contributions":158,"per_cent":0.589,"insee":"24037"}},{"type":"Feature","geometry":{"type":"Point","coordinates":[6.523333215052187,48.19688120306255]},"properties":{"name":"Deyvillers","population":1389,"contributions":2,"per_cent":0.144,"insee":"88132"}},{"type":"Feature","geometry":{"type":"Point","coordinates":[5.556189552390123,48.74632426063669]},"properties":{"name":"Commercy","population":5399,"contributions":1,"per_cent":0.019,"insee":"55122"}},{"type":"Feature","geometry":{"type":"Point","coordinates":[7.537144267097882,43.99392340152135]},"properties":{"name":"Saorge","population":459,"contributions":7,"per_cent":1.525,"insee":"06132"}},{"type":"Feature","geometry":{"type":"Point","coordinates":[2.2537812665639456,48.46681282261069]},"properties":{"name":"Villeneuve-sur-Auvers","population":611,"contributions":13,"per_cent":2.128,"insee":"91671"}},{"type":"Feature","geometry":{"type":"Point","coordinates":[4.878123777153327,46.70999014507794]},"properties":{"name":"Varennes-le-Grand","population":2319,"contributions":1,"per_cent":0.043,"insee":"71555"}},{"type":"Feature","geometry":{"type":"Point","coordinates":[3.8583478071390425,43.73723766296055]},"properties":{"name":"Le Triadou","population":519,"contributions":1,"per_cent":0.193,"insee":"34314"}},{"type":"Feature","geometry":{"type":"Point","coordinates":[2.459775607357487,43.20540682730418]},"properties":{"name":"Tr\u00e8bes","population":5566,"contributions":7,"per_cent":0.126,"insee":"11397"}},{"type":"Feature","geometry":{"type":"Point","coordinates":[3.0931747219375985,48.38667228385007]},"properties":{"name":"La Tombe","population":216,"contributions":3,"per_cent":1.389,"insee":"77467"}},{"type":"Feature","geometry":{"type":"Point","coordinates":[-1.7773286627618046,48.15267424488268]},"properties":{"name":"Pac\u00e9","population":11825,"contributions":43,"per_cent":0.364,"insee":"35210"}},{"type":"Feature","geometry":{"type":"Point","coordinates":[3.8623057315180853,43.80187449822655]},"properties":{"name":"Valflaun\u00e8s","population":765,"contributions":1,"per_cent":0.131,"insee":"34322"}},{"type":"Feature","geometry":{"type":"Point","coordinates":[1.3967707696195266,48.48766112875153]},"properties":{"name":"Bailleau-l'\u00c9v\u00eaque","population":1151,"contributions":1,"per_cent":0.087,"insee":"28022"}},{"type":"Feature","geometry":{"type":"Point","coordinates":[3.385708178789482,45.29620408269936]},"properties":{"name":"Brioude","population":6681,"contributions":9,"per_cent":0.135,"insee":"43040"}},{"type":"Feature","geometry":{"type":"Point","coordinates":[5.129005538774349,44.35655742799818]},"properties":{"name":"Nyons","population":6782,"contributions":5,"per_cent":0.074,"insee":"26220"}},{"type":"Feature","geometry":{"type":"Point","coordinates":[3.1684776472025895,50.33703257383207]},"properties":{"name":"Lewarde","population":2427,"contributions":1,"per_cent":0.041,"insee":"59345"}},{"type":"Feature","geometry":{"type":"Point","coordinates":[6.6135736587027445,45.56646547327243]},"properties":{"name":"Aime-la-Plagne","population":4486,"contributions":14,"per_cent":0.312,"insee":"73006"}},{"type":"Feature","geometry":{"type":"Point","coordinates":[7.363816613165817,47.67635810639184]},"properties":{"name":"Steinbrunn-le-Bas","population":791,"contributions":1,"per_cent":0.126,"insee":"68323"}},{"type":"Feature","geometry":{"type":"Point","coordinates":[0.2751072955049026,44.84811490028906]},"properties":{"name":"Saint-Avit-Saint-Nazaire","population":1474,"contributions":1,"per_cent":0.068,"insee":"33378"}},{"type":"Feature","geometry":{"type":"Point","coordinates":[6.380192491495448,47.55730988263368]},"properties":{"name":"Marast","population":55,"contributions":1,"per_cent":1.818,"insee":"70332"}},{"type":"Feature","geometry":{"type":"Point","coordinates":[-0.9723360161908944,47.402417827294414]},"properties":{"name":"Montrelais","population":844,"contributions":1,"per_cent":0.118,"insee":"44104"}},{"type":"Feature","geometry":{"type":"Point","coordinates":[-0.0722561375079002,42.94960215515406]},"properties":{"name":"Soulom","population":265,"contributions":1,"per_cent":0.377,"insee":"65435"}},{"type":"Feature","geometry":{"type":"Point","coordinates":[2.586591797845344,44.332069205031935]},"properties":{"name":"Le Monast\u00e8re","population":2276,"contributions":1,"per_cent":0.044,"insee":"12146"}},{"type":"Feature","geometry":{"type":"Point","coordinates":[2.254734708415106,43.22574244615247]},"properties":{"name":"Caux-et-Sauzens","population":999,"contributions":1,"per_cent":0.1,"insee":"11084"}},{"type":"Feature","geometry":{"type":"Point","coordinates":[6.151769951725574,43.76430719993535]},"properties":{"name":"Sainte-Croix-du-Verdon","population":119,"contributions":1,"per_cent":0.84,"insee":"04176"}},{"type":"Feature","geometry":{"type":"Point","coordinates":[4.381357536842263,45.53090753753043]},"properties":{"name":"Saint-H\u00e9and","population":3614,"contributions":4,"per_cent":0.111,"insee":"42234"}},{"type":"Feature","geometry":{"type":"Point","coordinates":[2.951557068446311,50.70296754961209]},"properties":{"name":"Frelinghien","population":2431,"contributions":36,"per_cent":1.481,"insee":"59252"}},{"type":"Feature","geometry":{"type":"Point","coordinates":[4.756731258506124,44.041720844974755]},"properties":{"name":"Roquemaure","population":5520,"contributions":7,"per_cent":0.127,"insee":"30221"}},{"type":"Feature","geometry":{"type":"Point","coordinates":[-1.0241701570065003,44.57805206388661]},"properties":{"name":"Le Teich","population":8205,"contributions":1,"per_cent":0.012,"insee":"33527"}},{"type":"Feature","geometry":{"type":"Point","coordinates":[1.1554462162044794,49.44428445240787]},"properties":{"name":"Darn\u00e9tal","population":9773,"contributions":15,"per_cent":0.153,"insee":"76212"}},{"type":"Feature","geometry":{"type":"Point","coordinates":[6.38712859513226,45.98543988310285]},"properties":{"name":"Gli\u00e8res-Val-de-Borne","population":1809,"contributions":2,"per_cent":0.111,"insee":"74212"}},{"type":"Feature","geometry":{"type":"Point","coordinates":[-1.5223305854541698,47.85595727759633]},"properties":{"name":"Lalleu","population":565,"contributions":1,"per_cent":0.177,"insee":"35140"}},{"type":"Feature","geometry":{"type":"Point","coordinates":[1.0318427606185605,49.47721553829925]},"properties":{"name":"Maromme","population":10730,"contributions":6,"per_cent":0.056,"insee":"76410"}},{"type":"Feature","geometry":{"type":"Point","coordinates":[2.747644939222283,49.12910975716508]},"properties":{"name":"Montagny-Sainte-F\u00e9licit\u00e9","population":415,"contributions":3,"per_cent":0.723,"insee":"60413"}},{"type":"Feature","geometry":{"type":"Point","coordinates":[3.2687828999466673,46.04430443798744]},"properties":{"name":"Effiat","population":1124,"contributions":1,"per_cent":0.089,"insee":"63143"}},{"type":"Feature","geometry":{"type":"Point","coordinates":[1.8935349187591461,48.02996986109306]},"properties":{"name":"Chevilly","population":2660,"contributions":1,"per_cent":0.038,"insee":"45093"}},{"type":"Feature","geometry":{"type":"Point","coordinates":[0.6081208748430955,46.92690690862871]},"properties":{"name":"Dang\u00e9-Saint-Romain","population":2975,"contributions":11,"per_cent":0.37,"insee":"86092"}},{"type":"Feature","geometry":{"type":"Point","coordinates":[3.9723821684747076,45.06239195671376]},"properties":{"name":"Blavozy","population":1670,"contributions":2,"per_cent":0.12,"insee":"43032"}},{"type":"Feature","geometry":{"type":"Point","coordinates":[3.0830396003096494,45.028656186758504]},"properties":{"name":"Saint-Flour","population":6365,"contributions":5,"per_cent":0.079,"insee":"15187"}},{"type":"Feature","geometry":{"type":"Point","coordinates":[2.5958950166891497,48.62852563401055]},"properties":{"name":"Moissy-Cramayel","population":17882,"contributions":4,"per_cent":0.022,"insee":"77296"}},{"type":"Feature","geometry":{"type":"Point","coordinates":[6.1200238552416515,48.293463437420144]},"properties":{"name":"Mirecourt","population":5078,"contributions":1,"per_cent":0.02,"insee":"88304"}},{"type":"Feature","geometry":{"type":"Point","coordinates":[-0.19452792428199775,43.23240020802462]},"properties":{"name":"Lucgarier","population":248,"contributions":1,"per_cent":0.403,"insee":"64358"}},{"type":"Feature","geometry":{"type":"Point","coordinates":[2.5363101303417337,48.95961209783353]},"properties":{"name":"Villepinte","population":37280,"contributions":82,"per_cent":0.22,"insee":"93078"}},{"type":"Feature","geometry":{"type":"Point","coordinates":[6.597855793467859,44.14408424655543]},"properties":{"name":"Beauvezer","population":381,"contributions":1,"per_cent":0.262,"insee":"04025"}},{"type":"Feature","geometry":{"type":"Point","coordinates":[5.8889250165459455,45.67484888704197]},"properties":{"name":"Tresserve","population":3003,"contributions":2,"per_cent":0.067,"insee":"73300"}},{"type":"Feature","geometry":{"type":"Point","coordinates":[1.834977758527587,49.43205795087935]},"properties":{"name":"Cuigy-en-Bray","population":956,"contributions":2,"per_cent":0.209,"insee":"60187"}},{"type":"Feature","geometry":{"type":"Point","coordinates":[3.9797291326679414,43.688696449849196]},"properties":{"name":"Castries","population":6250,"contributions":101,"per_cent":1.616,"insee":"34058"}},{"type":"Feature","geometry":{"type":"Point","coordinates":[-3.0158710069031223,47.782651014104715]},"properties":{"name":"Pluvigner","population":7635,"contributions":1,"per_cent":0.013,"insee":"56177"}},{"type":"Feature","geometry":{"type":"Point","coordinates":[-0.535401800315147,47.27157403512736]},"properties":{"name":"Bellevigne-en-Layon","population":5740,"contributions":4,"per_cent":0.07,"insee":"49345"}},{"type":"Feature","geometry":{"type":"Point","coordinates":[2.3264328309858167,48.97171778268242]},"properties":{"name":"Deuil-la-Barre","population":22165,"contributions":101,"per_cent":0.456,"insee":"95197"}},{"type":"Feature","geometry":{"type":"Point","coordinates":[-0.9535808176571577,45.9025963706412]},"properties":{"name":"\u00c9chillais","population":3546,"contributions":34,"per_cent":0.959,"insee":"17146"}},{"type":"Feature","geometry":{"type":"Point","coordinates":[1.7828667421605298,48.95295031743487]},"properties":{"name":"M\u00e9zi\u00e8res-sur-Seine","population":3707,"contributions":3,"per_cent":0.081,"insee":"78402"}},{"type":"Feature","geometry":{"type":"Point","coordinates":[1.495762622654917,45.84106240751557]},"properties":{"name":"Saint-L\u00e9onard-de-Noblat","population":4470,"contributions":15,"per_cent":0.336,"insee":"87161"}},{"type":"Feature","geometry":{"type":"Point","coordinates":[1.3592853629812194,43.47932306547171]},"properties":{"name":"Saubens","population":2240,"contributions":1,"per_cent":0.045,"insee":"31533"}},{"type":"Feature","geometry":{"type":"Point","coordinates":[6.019396188207301,43.12681913354102]},"properties":{"name":"La Garde","population":25380,"contributions":17,"per_cent":0.067,"insee":"83062"}},{"type":"Feature","geometry":{"type":"Point","coordinates":[2.737785911152383,50.511913492165874]},"properties":{"name":"Cambrin","population":1236,"contributions":4,"per_cent":0.324,"insee":"62200"}},{"type":"Feature","geometry":{"type":"Point","coordinates":[-0.6802671699205977,46.56514176780336]},"properties":{"name":"Puy-de-Serre","population":317,"contributions":1,"per_cent":0.315,"insee":"85184"}},{"type":"Feature","geometry":{"type":"Point","coordinates":[2.366055384806602,43.249606966551475]},"properties":{"name":"Villemoustaussou","population":4449,"contributions":5,"per_cent":0.112,"insee":"11429"}},{"type":"Feature","geometry":{"type":"Point","coordinates":[3.212617213739524,47.09268118468361]},"properties":{"name":"Gu\u00e9rigny","population":2511,"contributions":2,"per_cent":0.08,"insee":"58131"}},{"type":"Feature","geometry":{"type":"Point","coordinates":[-0.5215623096752326,44.85487178188094]},"properties":{"name":"Cenon","population":25292,"contributions":12,"per_cent":0.047,"insee":"33119"}},{"type":"Feature","geometry":{"type":"Point","coordinates":[1.2120374403085163,47.61752643231773]},"properties":{"name":"Saint-Lubin-en-Vergonnois","population":718,"contributions":2,"per_cent":0.279,"insee":"41223"}},{"type":"Feature","geometry":{"type":"Point","coordinates":[0.07208587888929353,48.62660889891513]},"properties":{"name":"Mortr\u00e9e","population":1160,"contributions":1,"per_cent":0.086,"insee":"61294"}},{"type":"Feature","geometry":{"type":"Point","coordinates":[6.415760641767391,46.84022593503123]},"properties":{"name":"Les Fourgs","population":1396,"contributions":3,"per_cent":0.215,"insee":"25254"}},{"type":"Feature","geometry":{"type":"Point","coordinates":[4.847630983822496,44.19398849405245]},"properties":{"name":"S\u00e9rignan-du-Comtat","population":2764,"contributions":1,"per_cent":0.036,"insee":"84127"}},{"type":"Feature","geometry":{"type":"Point","coordinates":[4.169949205255093,46.09862683090856]},"properties":{"name":"Nandax","population":534,"contributions":1,"per_cent":0.187,"insee":"42152"}},{"type":"Feature","geometry":{"type":"Point","coordinates":[1.9342069820487235,48.5727205023102]},"properties":{"name":"Saint-Arnoult-en-Yvelines","population":5910,"contributions":4,"per_cent":0.068,"insee":"78537"}},{"type":"Feature","geometry":{"type":"Point","coordinates":[-2.026806252152623,47.29212588553348]},"properties":{"name":"Paimb\u0153uf","population":3056,"contributions":18,"per_cent":0.589,"insee":"44116"}},{"type":"Feature","geometry":{"type":"Point","coordinates":[7.64464311336215,48.55655480919415]},"properties":{"name":"Holtzheim","population":3696,"contributions":4,"per_cent":0.108,"insee":"67212"}},{"type":"Feature","geometry":{"type":"Point","coordinates":[-1.2404455159189114,46.895022922319555]},"properties":{"name":"Chavagnes-en-Paillers","population":3529,"contributions":8,"per_cent":0.227,"insee":"85065"}},{"type":"Feature","geometry":{"type":"Point","coordinates":[2.7642127232882028,44.519078632858836]},"properties":{"name":"Espalion","population":4559,"contributions":4,"per_cent":0.088,"insee":"12096"}},{"type":"Feature","geometry":{"type":"Point","coordinates":[4.324916253340509,45.42622623981236]},"properties":{"name":"Roche-la-Moli\u00e8re","population":9825,"contributions":4,"per_cent":0.041,"insee":"42189"}},{"type":"Feature","geometry":{"type":"Point","coordinates":[5.1936732202590346,45.676107714089206]},"properties":{"name":"Panossas","population":662,"contributions":2,"per_cent":0.302,"insee":"38294"}},{"type":"Feature","geometry":{"type":"Point","coordinates":[4.2825914900847355,49.29778607650312]},"properties":{"name":"Selles","population":411,"contributions":2,"per_cent":0.487,"insee":"51529"}},{"type":"Feature","geometry":{"type":"Point","coordinates":[-4.715685340081954,48.39975175322028]},"properties":{"name":"Ploumoguer","population":2059,"contributions":19,"per_cent":0.923,"insee":"29201"}},{"type":"Feature","geometry":{"type":"Point","coordinates":[0.39346764335365386,43.11710213781423]},"properties":{"name":"Lannemezan","population":5812,"contributions":5,"per_cent":0.086,"insee":"65258"}},{"type":"Feature","geometry":{"type":"Point","coordinates":[6.082639718776734,47.286761988874304]},"properties":{"name":"Thise","population":3028,"contributions":1,"per_cent":0.033,"insee":"25560"}},{"type":"Feature","geometry":{"type":"Point","coordinates":[5.579454959312269,47.57147716327977]},"properties":{"name":"Framont","population":177,"contributions":2,"per_cent":1.13,"insee":"70252"}},{"type":"Feature","geometry":{"type":"Point","coordinates":[2.9809158341360398,42.499715899924716]},"properties":{"name":"Sor\u00e8de","population":3315,"contributions":2,"per_cent":0.06,"insee":"66196"}},{"type":"Feature","geometry":{"type":"Point","coordinates":[4.734551518721749,44.93978900808169]},"properties":{"name":"Alboussi\u00e8re","population":974,"contributions":1,"per_cent":0.103,"insee":"07007"}},{"type":"Feature","geometry":{"type":"Point","coordinates":[1.8863183642936758,43.9166365783695]},"properties":{"name":"Gaillac","population":15345,"contributions":51,"per_cent":0.332,"insee":"81099"}},{"type":"Feature","geometry":{"type":"Point","coordinates":[2.257675509136743,46.938735320064886]},"properties":{"name":"Lunery","population":1576,"contributions":4,"per_cent":0.254,"insee":"18133"}},{"type":"Feature","geometry":{"type":"Point","coordinates":[-0.10743173319785346,47.39855919890862]},"properties":{"name":"Longu\u00e9-Jumelles","population":6809,"contributions":1,"per_cent":0.015,"insee":"49180"}},{"type":"Feature","geometry":{"type":"Point","coordinates":[7.372681598722427,47.54957556081522]},"properties":{"name":"Muespach","population":908,"contributions":2,"per_cent":0.22,"insee":"68221"}},{"type":"Feature","geometry":{"type":"Point","coordinates":[1.6964290994675766,48.83716432360535]},"properties":{"name":"Orgerus","population":2409,"contributions":8,"per_cent":0.332,"insee":"78465"}},{"type":"Feature","geometry":{"type":"Point","coordinates":[-1.3146741908013213,48.309919542657944]},"properties":{"name":"La Chapelle-Saint-Aubert","population":446,"contributions":1,"per_cent":0.224,"insee":"35063"}},{"type":"Feature","geometry":{"type":"Point","coordinates":[5.547136063002763,43.42672668678387]},"properties":{"name":"Gr\u00e9asque","population":4253,"contributions":2,"per_cent":0.047,"insee":"13046"}},{"type":"Feature","geometry":{"type":"Point","coordinates":[-0.35003952991759785,43.260290931068816]},"properties":{"name":"Uzos","population":759,"contributions":1,"per_cent":0.132,"insee":"64550"}},{"type":"Feature","geometry":{"type":"Point","coordinates":[5.797869005870933,45.33143912585261]},"properties":{"name":"Saint-Pierre-de-Chartreuse","population":989,"contributions":2,"per_cent":0.202,"insee":"38442"}},{"type":"Feature","geometry":{"type":"Point","coordinates":[5.843848934453399,48.26141186743622]},"properties":{"name":"Sandaucourt","population":171,"contributions":1,"per_cent":0.585,"insee":"88440"}},{"type":"Feature","geometry":{"type":"Point","coordinates":[-1.6818689569630096,48.11167956598057]},"properties":{"name":"Rennes","population":217728,"contributions":933,"per_cent":0.429,"insee":"35238"}},{"type":"Feature","geometry":{"type":"Point","coordinates":[-1.129595801050913,49.116051663747854]},"properties":{"name":"Agneaux","population":4061,"contributions":5,"per_cent":0.123,"insee":"50002"}},{"type":"Feature","geometry":{"type":"Point","coordinates":[1.7366011488955615,44.15624650129863]},"properties":{"name":"Saint-Antonin-Noble-Val","population":1848,"contributions":1,"per_cent":0.054,"insee":"82155"}},{"type":"Feature","geometry":{"type":"Point","coordinates":[2.87999236513687,50.69126940860542]},"properties":{"name":"Armenti\u00e8res","population":24778,"contributions":72,"per_cent":0.291,"insee":"59017"}},{"type":"Feature","geometry":{"type":"Point","coordinates":[3.7595199027343496,43.90042907861581]},"properties":{"name":"Saint-Bauzille-de-Putois","population":1989,"contributions":1,"per_cent":0.05,"insee":"34243"}},{"type":"Feature","geometry":{"type":"Point","coordinates":[-1.929981226308309,48.4179064375013]},"properties":{"name":"Plesder","population":786,"contributions":1,"per_cent":0.127,"insee":"35225"}},{"type":"Feature","geometry":{"type":"Point","coordinates":[5.143599152742282,45.88624695481697]},"properties":{"name":"Bourg-Saint-Christophe","population":1407,"contributions":2,"per_cent":0.142,"insee":"01054"}},{"type":"Feature","geometry":{"type":"Point","coordinates":[1.5653919867934467,45.424161140729616]},"properties":{"name":"Uzerche","population":2796,"contributions":8,"per_cent":0.286,"insee":"19276"}},{"type":"Feature","geometry":{"type":"Point","coordinates":[0.20979622095463843,49.403431619677455]},"properties":{"name":"\u00c9quemauville","population":1440,"contributions":1,"per_cent":0.069,"insee":"14243"}},{"type":"Feature","geometry":{"type":"Point","coordinates":[-1.110510509374233,47.400256890594285]},"properties":{"name":"Vair-sur-Loire","population":4717,"contributions":5,"per_cent":0.106,"insee":"44163"}},{"type":"Feature","geometry":{"type":"Point","coordinates":[0.11536804628911121,47.901850686932455]},"properties":{"name":"Fill\u00e9","population":1483,"contributions":1,"per_cent":0.067,"insee":"72133"}},{"type":"Feature","geometry":{"type":"Point","coordinates":[7.739050767335024,48.81729291155836]},"properties":{"name":"Schweighouse-sur-Moder","population":4957,"contributions":1,"per_cent":0.02,"insee":"67458"}},{"type":"Feature","geometry":{"type":"Point","coordinates":[5.06275973473946,46.70589220320178]},"properties":{"name":"Saint-\u00c9tienne-en-Bresse","population":790,"contributions":1,"per_cent":0.127,"insee":"71410"}},{"type":"Feature","geometry":{"type":"Point","coordinates":[2.854014032771651,48.24121837205531]},"properties":{"name":"Paley","population":423,"contributions":1,"per_cent":0.236,"insee":"77353"}},{"type":"Feature","geometry":{"type":"Point","coordinates":[1.598819092187187,50.50878918289255]},"properties":{"name":"Le Touquet-Paris-Plage","population":4229,"contributions":5,"per_cent":0.118,"insee":"62826"}},{"type":"Feature","geometry":{"type":"Point","coordinates":[5.0697160604567,47.406805308153984]},"properties":{"name":"Norges-la-Ville","population":949,"contributions":1,"per_cent":0.105,"insee":"21462"}},{"type":"Feature","geometry":{"type":"Point","coordinates":[1.5765830263961242,50.34531489023133]},"properties":{"name":"Fort-Mahon-Plage","population":1300,"contributions":3,"per_cent":0.231,"insee":"80333"}},{"type":"Feature","geometry":{"type":"Point","coordinates":[1.7092090083421698,47.9390200197429]},"properties":{"name":"Rozi\u00e8res-en-Beauce","population":188,"contributions":1,"per_cent":0.532,"insee":"45264"}},{"type":"Feature","geometry":{"type":"Point","coordinates":[-1.7639299747741923,46.51980796222166]},"properties":{"name":"Les Sables-d'Olonne","population":44355,"contributions":18,"per_cent":0.041,"insee":"85194"}},{"type":"Feature","geometry":{"type":"Point","coordinates":[4.787653389577417,47.17473759691459]},"properties":{"name":"D\u00e9tain-et-Bruant","population":142,"contributions":1,"per_cent":0.704,"insee":"21228"}},{"type":"Feature","geometry":{"type":"Point","coordinates":[1.035269147664322,48.99743147134002]},"properties":{"name":"La Bonneville-sur-Iton","population":2102,"contributions":1,"per_cent":0.048,"insee":"27082"}},{"type":"Feature","geometry":{"type":"Point","coordinates":[3.0857671277821326,50.53985353811254]},"properties":{"name":"Avelin","population":2666,"contributions":1,"per_cent":0.038,"insee":"59034"}},{"type":"Feature","geometry":{"type":"Point","coordinates":[6.649259839386788,44.899517431422346]},"properties":{"name":"Brian\u00e7on","population":11084,"contributions":102,"per_cent":0.92,"insee":"05023"}},{"type":"Feature","geometry":{"type":"Point","coordinates":[2.1965239821027605,44.22117169181454]},"properties":{"name":"La Salvetat-Peyral\u00e8s","population":980,"contributions":1,"per_cent":0.102,"insee":"12258"}},{"type":"Feature","geometry":{"type":"Point","coordinates":[2.1921102716072327,48.80746982523978]},"properties":{"name":"Chaville","population":20702,"contributions":64,"per_cent":0.309,"insee":"92022"}},{"type":"Feature","geometry":{"type":"Point","coordinates":[-3.3343564625520403,47.69512810888961]},"properties":{"name":"G\u00e2vres","population":678,"contributions":2,"per_cent":0.295,"insee":"56062"}},{"type":"Feature","geometry":{"type":"Point","coordinates":[6.896347529417654,47.48262245960156]},"properties":{"name":"Dasle","population":1405,"contributions":2,"per_cent":0.142,"insee":"25196"}},{"type":"Feature","geometry":{"type":"Point","coordinates":[4.839648882104633,43.88209976010972]},"properties":{"name":"Ch\u00e2teaurenard","population":16012,"contributions":14,"per_cent":0.087,"insee":"13027"}},{"type":"Feature","geometry":{"type":"Point","coordinates":[5.957852912552392,49.45846645361502]},"properties":{"name":"Audun-le-Tiche","population":6976,"contributions":1,"per_cent":0.014,"insee":"57038"}},{"type":"Feature","geometry":{"type":"Point","coordinates":[4.247564311559077,49.69999293829695]},"properties":{"name":"Rocquigny","population":690,"contributions":1,"per_cent":0.145,"insee":"08366"}},{"type":"Feature","geometry":{"type":"Point","coordinates":[55.649277760640324,-21.09184697631273]},"properties":{"name":"Saint-Beno\u00eet","population":37274,"contributions":1,"per_cent":0.003,"insee":"97410"}},{"type":"Feature","geometry":{"type":"Point","coordinates":[-0.2560944351226324,47.55429110340894]},"properties":{"name":"Jarz\u00e9 Villages","population":2746,"contributions":1,"per_cent":0.036,"insee":"49163"}},{"type":"Feature","geometry":{"type":"Point","coordinates":[1.4936046419271696,47.65120013885777]},"properties":{"name":"Saint-Dy\u00e9-sur-Loire","population":1136,"contributions":1,"per_cent":0.088,"insee":"41207"}},{"type":"Feature","geometry":{"type":"Point","coordinates":[-0.2138381204418701,43.121552881305774]},"properties":{"name":"Lestelle-B\u00e9tharram","population":828,"contributions":2,"per_cent":0.242,"insee":"64339"}},{"type":"Feature","geometry":{"type":"Point","coordinates":[2.8008611134264845,50.12720527790811]},"properties":{"name":"Bihucourt","population":345,"contributions":1,"per_cent":0.29,"insee":"62131"}},{"type":"Feature","geometry":{"type":"Point","coordinates":[2.036882378367514,43.186858744932515]},"properties":{"name":"Fanjeaux","population":835,"contributions":1,"per_cent":0.12,"insee":"11136"}},{"type":"Feature","geometry":{"type":"Point","coordinates":[-2.848563798623896,48.5245298638382]},"properties":{"name":"Tr\u00e9muson","population":2108,"contributions":4,"per_cent":0.19,"insee":"22372"}},{"type":"Feature","geometry":{"type":"Point","coordinates":[-4.6697345611895695,48.537582319699936]},"properties":{"name":"Ploudalm\u00e9zeau","population":6292,"contributions":6,"per_cent":0.095,"insee":"29178"}},{"type":"Feature","geometry":{"type":"Point","coordinates":[-0.4493319631226788,49.255136857691646]},"properties":{"name":"Thaon","population":1640,"contributions":1,"per_cent":0.061,"insee":"14685"}},{"type":"Feature","geometry":{"type":"Point","coordinates":[-1.0410418728818183,49.18536517136604]},"properties":{"name":"Saint-Clair-sur-l'Elle","population":957,"contributions":1,"per_cent":0.104,"insee":"50455"}},{"type":"Feature","geometry":{"type":"Point","coordinates":[3.419013653399535,49.03151708504857]},"properties":{"name":"\u00c9tampes-sur-Marne","population":1279,"contributions":1,"per_cent":0.078,"insee":"02292"}},{"type":"Feature","geometry":{"type":"Point","coordinates":[5.312466098993273,46.214830926229006]},"properties":{"name":"Jasseron","population":1770,"contributions":1,"per_cent":0.056,"insee":"01195"}},{"type":"Feature","geometry":{"type":"Point","coordinates":[5.631435237713009,45.06546011548402]},"properties":{"name":"Saint-Paul-de-Varces","population":2222,"contributions":1,"per_cent":0.045,"insee":"38436"}},{"type":"Feature","geometry":{"type":"Point","coordinates":[6.144287338332112,44.096652336827106]},"properties":{"name":"Champtercier","population":850,"contributions":2,"per_cent":0.235,"insee":"04047"}},{"type":"Feature","geometry":{"type":"Point","coordinates":[4.123179426395491,44.09210454750849]},"properties":{"name":"Saint-Hilaire-de-Brethmas","population":4408,"contributions":2,"per_cent":0.045,"insee":"30259"}},{"type":"Feature","geometry":{"type":"Point","coordinates":[4.634289103566519,46.757690712921686]},"properties":{"name":"Sainte-H\u00e9l\u00e8ne","population":529,"contributions":1,"per_cent":0.189,"insee":"71426"}},{"type":"Feature","geometry":{"type":"Point","coordinates":[1.8953776121836177,48.71625037937698]},"properties":{"name":"Les Essarts-le-Roi","population":6688,"contributions":6,"per_cent":0.09,"insee":"78220"}},{"type":"Feature","geometry":{"type":"Point","coordinates":[4.44882430999994,45.45704412108371]},"properties":{"name":"Saint-Jean-Bonnefonds","population":6627,"contributions":37,"per_cent":0.558,"insee":"42237"}},{"type":"Feature","geometry":{"type":"Point","coordinates":[1.942819295343047,50.128409852743786]},"properties":{"name":"Saint-Riquier","population":1270,"contributions":6,"per_cent":0.472,"insee":"80716"}},{"type":"Feature","geometry":{"type":"Point","coordinates":[2.117435222280456,48.802278634531625]},"properties":{"name":"Versailles","population":85205,"contributions":341,"per_cent":0.4,"insee":"78646"}},{"type":"Feature","geometry":{"type":"Point","coordinates":[2.6944314176203683,48.858128801258246]},"properties":{"name":"Gouvernes","population":1183,"contributions":3,"per_cent":0.254,"insee":"77209"}},{"type":"Feature","geometry":{"type":"Point","coordinates":[5.9912001514598225,45.5969440536705]},"properties":{"name":"Saint-Jean-d'Arvey","population":1712,"contributions":4,"per_cent":0.234,"insee":"73243"}},{"type":"Feature","geometry":{"type":"Point","coordinates":[-1.918416329367211,47.3572206511999]},"properties":{"name":"Savenay","population":8872,"contributions":65,"per_cent":0.733,"insee":"44195"}},{"type":"Feature","geometry":{"type":"Point","coordinates":[7.022839169546383,49.155466707945855]},"properties":{"name":"Grosbliederstroff","population":3281,"contributions":7,"per_cent":0.213,"insee":"57260"}},{"type":"Feature","geometry":{"type":"Point","coordinates":[7.4411806714324245,47.538886392028196]},"properties":{"name":"Folgensbourg","population":926,"contributions":7,"per_cent":0.756,"insee":"68094"}},{"type":"Feature","geometry":{"type":"Point","coordinates":[-1.0232079087097148,48.10868540561718]},"properties":{"name":"Saint-Pierre-la-Cour","population":2214,"contributions":1,"per_cent":0.045,"insee":"53247"}},{"type":"Feature","geometry":{"type":"Point","coordinates":[2.0179670530431406,48.80456614603286]},"properties":{"name":"Bois-d'Arcy","population":15220,"contributions":119,"per_cent":0.782,"insee":"78073"}},{"type":"Feature","geometry":{"type":"Point","coordinates":[0.7888018689760239,48.54957997802063]},"properties":{"name":"Longny les Villages","population":3002,"contributions":1,"per_cent":0.033,"insee":"61230"}},{"type":"Feature","geometry":{"type":"Point","coordinates":[0.1109339609484057,43.12305929856508]},"properties":{"name":"Montgaillard","population":849,"contributions":2,"per_cent":0.236,"insee":"65320"}},{"type":"Feature","geometry":{"type":"Point","coordinates":[1.7776823665797188,48.63388770193201]},"properties":{"name":"Gazeran","population":1285,"contributions":1,"per_cent":0.078,"insee":"78269"}},{"type":"Feature","geometry":{"type":"Point","coordinates":[3.96528216547231,49.317870827338986]},"properties":{"name":"Thil","population":300,"contributions":1,"per_cent":0.333,"insee":"51568"}},{"type":"Feature","geometry":{"type":"Point","coordinates":[6.113706217286124,48.68223650533725]},"properties":{"name":"Laxou","population":14300,"contributions":9,"per_cent":0.063,"insee":"54304"}},{"type":"Feature","geometry":{"type":"Point","coordinates":[4.800315285271556,45.079363271431944]},"properties":{"name":"Saint-Jean-de-Muzols","population":2491,"contributions":1,"per_cent":0.04,"insee":"07245"}},{"type":"Feature","geometry":{"type":"Point","coordinates":[-3.298018645171776,48.68203410583672]},"properties":{"name":"Prat","population":1118,"contributions":1,"per_cent":0.089,"insee":"22254"}},{"type":"Feature","geometry":{"type":"Point","coordinates":[2.895495146924744,50.66585801235511]},"properties":{"name":"La Chapelle-d'Armenti\u00e8res","population":8627,"contributions":58,"per_cent":0.672,"insee":"59143"}},{"type":"Feature","geometry":{"type":"Point","coordinates":[6.0353125516208435,45.90352467323366]},"properties":{"name":"Lovagny","population":1272,"contributions":3,"per_cent":0.236,"insee":"74152"}},{"type":"Feature","geometry":{"type":"Point","coordinates":[3.9779199168165493,43.728859222715016]},"properties":{"name":"Saint-Dr\u00e9z\u00e9ry","population":2630,"contributions":22,"per_cent":0.837,"insee":"34249"}},{"type":"Feature","geometry":{"type":"Point","coordinates":[5.002508975952137,43.81777033933906]},"properties":{"name":"Plan-d'Orgon","population":3465,"contributions":1,"per_cent":0.029,"insee":"13076"}},{"type":"Feature","geometry":{"type":"Point","coordinates":[3.9118807477853554,43.66316588469107]},"properties":{"name":"Jacou","population":6800,"contributions":60,"per_cent":0.882,"insee":"34120"}},{"type":"Feature","geometry":{"type":"Point","coordinates":[4.852631089240426,46.72392621326377]},"properties":{"name":"Saint-Loup-de-Varennes","population":1179,"contributions":1,"per_cent":0.085,"insee":"71444"}},{"type":"Feature","geometry":{"type":"Point","coordinates":[3.5716515858571003,43.97077963595954]},"properties":{"name":"Moli\u00e8res-Cavaillac","population":931,"contributions":13,"per_cent":1.396,"insee":"30170"}},{"type":"Feature","geometry":{"type":"Point","coordinates":[0.992494690230295,47.3495000921342]},"properties":{"name":"La Croix-en-Touraine","population":2348,"contributions":2,"per_cent":0.085,"insee":"37091"}},{"type":"Feature","geometry":{"type":"Point","coordinates":[-0.7115034595842119,47.660434094545565]},"properties":{"name":"Montreuil-sur-Maine","population":774,"contributions":1,"per_cent":0.129,"insee":"49217"}},{"type":"Feature","geometry":{"type":"Point","coordinates":[3.9021439556793243,43.56353328764706]},"properties":{"name":"Lattes","population":16710,"contributions":58,"per_cent":0.347,"insee":"34129"}},{"type":"Feature","geometry":{"type":"Point","coordinates":[3.128429620103095,48.953967797141814]},"properties":{"name":"La Fert\u00e9-sous-Jouarre","population":9586,"contributions":3,"per_cent":0.031,"insee":"77183"}},{"type":"Feature","geometry":{"type":"Point","coordinates":[5.088833202751564,43.70510280383636]},"properties":{"name":"Lamanon","population":1989,"contributions":1,"per_cent":0.05,"insee":"13049"}},{"type":"Feature","geometry":{"type":"Point","coordinates":[-2.0437149492683195,48.609214414462805]},"properties":{"name":"La Richardais","population":2349,"contributions":4,"per_cent":0.17,"insee":"35241"}},{"type":"Feature","geometry":{"type":"Point","coordinates":[6.017770780241228,45.17047708661115]},"properties":{"name":"Allemond","population":954,"contributions":1,"per_cent":0.105,"insee":"38005"}},{"type":"Feature","geometry":{"type":"Point","coordinates":[5.065013946954611,44.530903252662725]},"properties":{"name":"Dieulefit","population":3199,"contributions":6,"per_cent":0.188,"insee":"26114"}},{"type":"Feature","geometry":{"type":"Point","coordinates":[0.7160372276861441,47.331383020217025]},"properties":{"name":"Chambray-l\u00e8s-Tours","population":11738,"contributions":37,"per_cent":0.315,"insee":"37050"}},{"type":"Feature","geometry":{"type":"Point","coordinates":[4.625765345884117,45.683883025766576]},"properties":{"name":"Thurins","population":3068,"contributions":5,"per_cent":0.163,"insee":"69249"}},{"type":"Feature","geometry":{"type":"Point","coordinates":[3.64619671834351,46.84957747593364]},"properties":{"name":"Cercy-la-Tour","population":1730,"contributions":1,"per_cent":0.058,"insee":"58046"}},{"type":"Feature","geometry":{"type":"Point","coordinates":[7.228933863109336,47.9381506621812]},"properties":{"name":"Orschwihr","population":1039,"contributions":1,"per_cent":0.096,"insee":"68250"}},{"type":"Feature","geometry":{"type":"Point","coordinates":[2.8826877464377416,48.597577551575846]},"properties":{"name":"Mormant","population":4924,"contributions":1,"per_cent":0.02,"insee":"77317"}},{"type":"Feature","geometry":{"type":"Point","coordinates":[-3.8717124413373902,48.51067272439773]},"properties":{"name":"Pleyber-Christ","population":3161,"contributions":4,"per_cent":0.127,"insee":"29163"}},{"type":"Feature","geometry":{"type":"Point","coordinates":[3.299607051881232,49.656817345441134]},"properties":{"name":"Tergnier","population":13547,"contributions":1,"per_cent":0.007,"insee":"02738"}},{"type":"Feature","geometry":{"type":"Point","coordinates":[5.820773217266003,47.18558089700687]},"properties":{"name":"Saint-Vit","population":4874,"contributions":5,"per_cent":0.103,"insee":"25527"}},{"type":"Feature","geometry":{"type":"Point","coordinates":[2.1149910897884836,49.55183175106322]},"properties":{"name":"Luchy","population":648,"contributions":2,"per_cent":0.309,"insee":"60372"}},{"type":"Feature","geometry":{"type":"Point","coordinates":[-0.7842574165678526,43.0732703234994]},"properties":{"name":"Lanne-en-Bar\u00e9tous","population":494,"contributions":1,"per_cent":0.202,"insee":"64310"}},{"type":"Feature","geometry":{"type":"Point","coordinates":[4.28873554759181,45.37884478910673]},"properties":{"name":"Firminy","population":16981,"contributions":4,"per_cent":0.024,"insee":"42095"}},{"type":"Feature","geometry":{"type":"Point","coordinates":[5.754769361887696,46.564349019255175]},"properties":{"name":"Clairvaux-les-Lacs","population":1442,"contributions":3,"per_cent":0.208,"insee":"39154"}},{"type":"Feature","geometry":{"type":"Point","coordinates":[6.3222516547326215,44.197120008670744]},"properties":{"name":"La Javie","population":394,"contributions":1,"per_cent":0.254,"insee":"04097"}},{"type":"Feature","geometry":{"type":"Point","coordinates":[2.9105188239807065,42.639842989339925]},"properties":{"name":"Villeneuve-de-la-Raho","population":3914,"contributions":33,"per_cent":0.843,"insee":"66227"}},{"type":"Feature","geometry":{"type":"Point","coordinates":[1.0142126298398098,49.43350066301182]},"properties":{"name":"Canteleu","population":14244,"contributions":6,"per_cent":0.042,"insee":"76157"}},{"type":"Feature","geometry":{"type":"Point","coordinates":[5.019739487163412,47.25784722007109]},"properties":{"name":"Perrigny-l\u00e8s-Dijon","population":2139,"contributions":3,"per_cent":0.14,"insee":"21481"}},{"type":"Feature","geometry":{"type":"Point","coordinates":[5.832623401580854,45.49428632802803]},"properties":{"name":"Saint-Thibaud-de-Couz","population":1065,"contributions":1,"per_cent":0.094,"insee":"73282"}},{"type":"Feature","geometry":{"type":"Point","coordinates":[-2.2995056184155915,47.68638203395812]},"properties":{"name":"Malansac","population":2200,"contributions":6,"per_cent":0.273,"insee":"56123"}},{"type":"Feature","geometry":{"type":"Point","coordinates":[4.371883247959375,45.49485161239985]},"properties":{"name":"L'\u00c9trat","population":2584,"contributions":5,"per_cent":0.193,"insee":"42092"}},{"type":"Feature","geometry":{"type":"Point","coordinates":[3.008885121532105,48.554486669443044]},"properties":{"name":"Nangis","population":8775,"contributions":1,"per_cent":0.011,"insee":"77327"}},{"type":"Feature","geometry":{"type":"Point","coordinates":[-0.6005942721406541,47.50527750889595]},"properties":{"name":"Avrill\u00e9","population":14065,"contributions":39,"per_cent":0.277,"insee":"49015"}},{"type":"Feature","geometry":{"type":"Point","coordinates":[-2.1513312691117394,47.24628165609901]},"properties":{"name":"Saint-Brevin-les-Pins","population":14118,"contributions":15,"per_cent":0.106,"insee":"44154"}},{"type":"Feature","geometry":{"type":"Point","coordinates":[1.2874241835125277,43.498619566467745]},"properties":{"name":"Seysses","population":9322,"contributions":6,"per_cent":0.064,"insee":"31547"}},{"type":"Feature","geometry":{"type":"Point","coordinates":[2.047055775142601,48.7283424260106]},"properties":{"name":"Milon-la-Chapelle","population":286,"contributions":2,"per_cent":0.699,"insee":"78406"}},{"type":"Feature","geometry":{"type":"Point","coordinates":[-3.1955906946679757,48.23557643640287]},"properties":{"name":"Gouarec","population":942,"contributions":1,"per_cent":0.106,"insee":"22064"}},{"type":"Feature","geometry":{"type":"Point","coordinates":[-4.373335966333686,48.59979615456267]},"properties":{"name":"Saint-Fr\u00e9gant","population":834,"contributions":1,"per_cent":0.12,"insee":"29248"}},{"type":"Feature","geometry":{"type":"Point","coordinates":[1.8478383581619873,43.591598365346364]},"properties":{"name":"Cambon-l\u00e8s-Lavaur","population":338,"contributions":1,"per_cent":0.296,"insee":"81050"}},{"type":"Feature","geometry":{"type":"Point","coordinates":[1.3910449092315085,43.48226795291511]},"properties":{"name":"Pins-Justaret","population":4363,"contributions":3,"per_cent":0.069,"insee":"31421"}},{"type":"Feature","geometry":{"type":"Point","coordinates":[2.3955053242251703,50.64430544329413]},"properties":{"name":"Aire-sur-la-Lys","population":9772,"contributions":5,"per_cent":0.051,"insee":"62014"}},{"type":"Feature","geometry":{"type":"Point","coordinates":[3.858232410079551,43.525810561835314]},"properties":{"name":"Villeneuve-l\u00e8s-Maguelone","population":10178,"contributions":47,"per_cent":0.462,"insee":"34337"}},{"type":"Feature","geometry":{"type":"Point","coordinates":[7.335729474534039,48.93214350731091]},"properties":{"name":"Rosteig","population":530,"contributions":1,"per_cent":0.189,"insee":"67413"}},{"type":"Feature","geometry":{"type":"Point","coordinates":[5.256972504722409,43.76930033792195]},"properties":{"name":"Puget","population":785,"contributions":1,"per_cent":0.127,"insee":"84093"}},{"type":"Feature","geometry":{"type":"Point","coordinates":[5.7970520070173785,48.89263955967481]},"properties":{"name":"Saint-Baussant","population":74,"contributions":1,"per_cent":1.351,"insee":"54470"}},{"type":"Feature","geometry":{"type":"Point","coordinates":[0.1372329125509535,42.99316441024952]},"properties":{"name":"Beaud\u00e9an","population":399,"contributions":2,"per_cent":0.501,"insee":"65078"}},{"type":"Feature","geometry":{"type":"Point","coordinates":[-1.5846635005090601,48.83599798673879]},"properties":{"name":"Granville","population":12567,"contributions":52,"per_cent":0.414,"insee":"50218"}},{"type":"Feature","geometry":{"type":"Point","coordinates":[-5.08600138882629,48.46073783006469]},"properties":{"name":"Ouessant","population":834,"contributions":2,"per_cent":0.24,"insee":"29155"}},{"type":"Feature","geometry":{"type":"Point","coordinates":[2.18631734287091,49.91314766231248]},"properties":{"name":"Ailly-sur-Somme","population":2985,"contributions":2,"per_cent":0.067,"insee":"80011"}},{"type":"Feature","geometry":{"type":"Point","coordinates":[1.5786530356148052,48.45194226729729]},